,job_title,low_end_salary,middle_range_salary,high_end_salary,company_name,job_location,sector,type_of_ownership,size_of_company,rating_of_company,cost_of_living_index,avg_salary_index,salary_col_differential,lat,lng,state
0,Data Scientist,53000,72000,91000,Tecolote Research,"Albuquerque, NM",Aerospace & Defense,Company - Private,501 to 1000 employees,3.8,92.9,70.1,36402,35.0843859,-106.650422,NM
1,Healthcare Data Scientist,63000,87500,112000,University of Maryland Medical System,"Linthicum, MD",Health Care,Other Organization,10000+ employees,3.4,NaN,85.2,NaN,39.2051077,-76.6527456,MD
2,Data Scientist,80000,85000,90000,KnowBe4,"Clearwater, FL",Business Services,Company - Private,501 to 1000 employees,4.8,NaN,82.8,NaN,27.9658533,-82.8001026,FL
3,Data Scientist,56000,76500,97000,PNNL,"Richland, WA","Oil, Gas, Energy & Utilities",Government,1001 to 5000 employees,3.8,NaN,74.5,NaN,46.28042000000001,-119.2751996,WA
4,Data Scientist,86000,114500,143000,Affinity Solutions,"New York, NY",Business Services,Company - Private,51 to 200 employees,2.9,128.0,111.6,65566,40.7127753,-74.0059728,NY
5,Data Scientist,71000,95000,119000,CyrusOne,"Dallas, TX",Real Estate,Company - Public,201 to 500 employees,3.4,98.5,92.6,57353,32.7766642,-96.79698789999999,TX
6,Data Scientist,54000,73500,93000,ClearOne Advantage,"Baltimore, MD",Finance,Company - Private,501 to 1000 employees,4.1,107.0,71.6,32546,39.2903848,-76.6121893,MD
7,Data Scientist,86000,114000,142000,Logic20/20,"San Jose, CA",Business Services,Company - Private,201 to 500 employees,3.8,173.5,111.1,47642,37.33874,-121.8852525,CA
8,Research Scientist,38000,61000,84000,Rochester Regional Health,"Rochester, NY",Health Care,Hospital,10000+ employees,3.3,96.6,59.4,24003,43.15657789999999,-77.6088465,NY
9,Data Scientist,120000,140000,160000,<intent>,"New York, NY",Information Technology,Company - Private,51 to 200 employees,4.6,128.0,136.4,91021,40.7127753,-74.0059728,NY
10,Data Scientist,126000,163500,201000,Wish,"San Jose, CA",Retail,Company - Private,501 to 1000 employees,3.5,173.5,159.3,97114,37.33874,-121.8852525,CA
11,Data Scientist,64000,85000,106000,ManTech,"Chantilly, VA",Business Services,Company - Public,5001 to 10000 employees,4.1,NaN,82.8,NaN,38.8942786,-77.43109919999999,VA
12,Staff Data Scientist - Technology,106000,139000,172000,Walmart,"Plano, TX",Retail,Company - Public,10000+ employees,3.2,NaN,135.4,NaN,33.0198431,-96.6988856,TX
13,Data Analyst,46000,65500,85000,Yesler,"Seattle, WA",Business Services,Company - Private,201 to 500 employees,4.1,124.6,63.8,17805,47.6062095,-122.3320708,WA
14,Data Scientist,83000,113500,144000,Takeda Pharmaceuticals,"Cambridge, MA",Biotech & Pharmaceuticals,Company - Public,10000+ employees,3.7,NaN,110.6,NaN,42.3736158,-71.10973349999999,MA
15,Data Engineer I,102000,146000,190000,Audible,"Newark, NJ",Media,Subsidiary or Business Segment,1001 to 5000 employees,3.6,NaN,142.2,NaN,40.735657,-74.1723667,NJ
16,"Scientist I/II, Biology",67000,102000,137000,Blueprint Medicines,"Cambridge, MA",Biotech & Pharmaceuticals,Company - Public,51 to 200 employees,3.9,NaN,99.4,NaN,42.3736158,-71.10973349999999,MA
17,Customer Data Scientist,118000,153500,189000,h2o.ai,"Mountain View, CA",Information Technology,Company - Private,201 to 500 employees,4.3,NaN,149.6,NaN,37.3860517,-122.0838511,CA
18,Data Scientist - Health Data Analytics,110000,142500,175000,Nuna,"San Francisco, CA",Information Technology,Company - Private,51 to 200 employees,4.2,178.6,138.8,74121,37.7749295,-122.4194155,CA
19,Data Scientist,64000,87500,111000,Pinnacol Assurance,"Denver, CO",Insurance,Nonprofit Organization,501 to 1000 employees,4.0,112.1,85.2,44553,39.7392358,-104.990251,CO
20,Data Scientist,81000,105500,130000,Porch,"Seattle, WA",Information Technology,Company - Private,201 to 500 employees,3.2,124.6,102.8,57835,47.6062095,-122.3320708,WA
21,Senior Data Scientist / Machine Learning,73000,96000,119000,Health IQ,"Dallas, TX",Insurance,Company - Private,201 to 500 employees,3.9,98.5,93.5,58276,32.7766642,-96.79698789999999,TX
22,Data Scientist - Quantitative,86000,112500,139000,Truckstop.com,"Chicago, IL",Transportation & Logistics,Company - Private,501 to 1000 employees,3.8,100.1,109.6,74189,41.8781136,-87.6297982,IL
23,Data Scientist,63000,84000,105000,SMC 3,"Louisville, KY",Transportation & Logistics,Nonprofit Organization,51 to 200 employees,4.3,91.6,81.8,48908,38.2526647,-85.7584557,KY
24,Data Scientist,109000,143000,177000,Novetta,"Herndon, VA",Information Technology,Company - Private,501 to 1000 employees,4.0,NaN,139.3,NaN,38.9695545,-77.3860976,VA
25,Digital Health Data Scientist,63000,86500,110000,Pfizer,"Cambridge, MA",Biotech & Pharmaceuticals,Company - Public,10000+ employees,4.0,NaN,84.3,NaN,42.3736158,-71.10973349999999,MA
26,Data Scientist,75000,99500,124000,First Tech Federal Credit Union,"Hillsboro, OR",Finance,Company - Private,1001 to 5000 employees,3.5,NaN,96.9,NaN,45.5201336,-122.9898149,OR
27,Associate Data Analyst,34000,47500,61000,The Hanover Insurance Group,"Worcester, MA",Insurance,Company - Public,5001 to 10000 employees,3.7,113.2,46.3,4205,42.2625932,-71.8022934,MA
28,Clinical Data Scientist,63000,84000,105000,Pfizer,"Groton, CT",Biotech & Pharmaceuticals,Company - Public,10000+ employees,4.0,NaN,81.8,NaN,41.3497456,-72.0790717,CT
29,Data Scientist,80000,85000,90000,KnowBe4,"Clearwater, FL",Business Services,Company - Private,501 to 1000 employees,4.8,NaN,82.8,NaN,27.9658533,-82.8001026,FL
30,Data Scientist,56000,76500,97000,PNNL,"Richland, WA","Oil, Gas, Energy & Utilities",Government,1001 to 5000 employees,3.8,NaN,74.5,NaN,46.28042000000001,-119.2751996,WA
31,Data Scientist,72000,96000,120000,Amrock,"Detroit, MI",Real Estate,Company - Private,1001 to 5000 employees,3.6,93.2,93.5,60305,42.331427,-83.0457538,MI
32,Data Scientist / Machine Learning Expert,86000,114500,143000,Novartis,"Cambridge, MA",Biotech & Pharmaceuticals,Company - Public,10000+ employees,3.8,NaN,111.6,NaN,42.3736158,-71.10973349999999,MA
33,Data Scientist,93000,121000,149000,Juniper Networks,"Sunnyvale, CA",Telecommunications,Company - Public,5001 to 10000 employees,3.8,NaN,117.9,NaN,37.36883,-122.0363496,CA
34,Data Scientist,85000,112500,140000,New England Biolabs,"Ipswich, MA",Biotech & Pharmaceuticals,Company - Private,201 to 500 employees,4.7,NaN,109.6,NaN,42.6791832,-70.8411558,MA
35,Web Data Analyst,77000,106000,135000,Clarity Insights,"San Jose, CA",Information Technology,Company - Private,201 to 500 employees,4.2,173.5,103.3,39636,37.33874,-121.8852525,CA
36,Data Scientist,82000,107000,132000,Esri,"Redlands, CA",Information Technology,Company - Private,1001 to 5000 employees,3.5,NaN,104.2,NaN,34.0563884,-117.2058765,CA
37,Data Scientist,83000,110000,137000,Systems & Technology Research,"Woburn, MA",Aerospace & Defense,Company - Private,201 to 500 employees,4.7,NaN,107.2,NaN,42.4792618,-71.1522765,MA
38,Senior Data Scientist,115000,147500,180000,Sartorius,"Fremont, CA",Biotech & Pharmaceuticals,Company - Public,5001 to 10000 employees,3.5,NaN,143.7,NaN,37.5485396,-121.988583,CA
39,Data Engineer,74000,106000,138000,Lancer Insurance,"Long Beach, NY",Insurance,Company - Private,201 to 500 employees,3.5,NaN,103.3,NaN,40.5884373,-73.65790799999999,NY
40,Data Analyst,64000,88000,112000,Sauce Labs,"San Francisco, CA",Information Technology,Company - Private,201 to 500 employees,4.2,178.6,85.7,19619,37.7749295,-122.4194155,CA
41,Data Engineer,68000,98500,129000,Persivia,"Marlborough, MA",-1,Company - Private,1 to 50 employees,3.6,NaN,96.0,NaN,42.3459271,-71.5522874,MA
42,Data Scientist - Algorithms & Inference,110000,142500,175000,Nuna,"San Francisco, CA",Information Technology,Company - Private,51 to 200 employees,4.2,178.6,138.8,74121,37.7749295,-122.4194155,CA
43,Scientist,52000,82500,113000,Edgewell Personal Care,"Allendale, NJ",Manufacturing,Company - Public,5001 to 10000 employees,3.4,NaN,80.4,NaN,41.0414857,-74.129032,NJ
44,Senior Data Scientist,110000,130000,150000,Equity Residential,"Chicago, IL",Real Estate,Company - Public,1001 to 5000 employees,4.3,100.1,126.7,91741,41.8781136,-87.6297982,IL
45,Data Scientist,150000,155000,160000,BPA Services,"Washington, DC",Information Technology,Company - Private,Unknown,5.0,120.1,151.0,109029,38.9071923,-77.0368707,DC
46,Lead Data Scientist,158000,184500,211000,Visa Inc.,"Bellevue, WA",Information Technology,Company - Public,10000+ employees,3.7,NaN,179.8,NaN,47.6101497,-122.2015159,WA
47,Associate Data Analyst,20000,29500,39000,Intrado,"Longmont, CO",Information Technology,Company - Private,5001 to 10000 employees,3.1,NaN,28.7,NaN,40.1672068,-105.1019275,CO
48,Spectral Scientist/Engineer,56000,86500,117000,Centauri,"Beavercreek, OH",Aerospace & Defense,Company - Private,501 to 1000 employees,4.7,NaN,84.3,NaN,39.7092262,-84.06326849999999,OH
49,College Hire - Data Scientist - Open to December 2019 Graduates,63000,81000,99000,Caterpillar,"Peoria, IL",Manufacturing,Company - Public,10000+ employees,3.7,86.7,78.9,47806,40.6936488,-89.5889864,IL
50,Data Scientist,68000,91000,114000,Zimmerman Advertising,"Fort Lauderdale, FL",Business Services,Subsidiary or Business Segment,501 to 1000 employees,3.8,NaN,88.7,NaN,26.1224386,-80.13731740000001,FL
51,"Data Scientist, Office of Data Science",86000,114500,143000,Liberty Mutual Insurance,"Boston, MA",Insurance,Company - Private,10000+ employees,3.3,132.6,111.6,63806,42.3600825,-71.0588801,MA
52,Data Science Analyst,41000,68000,95000,"Torch Technologies, Inc.","Huntsville, AL",Aerospace & Defense,Company - Private,1001 to 5000 employees,4.6,91.3,66.3,33113,34.7303688,-86.5861037,AL
53,Data Scientist,86000,115000,144000,Swiss Re,"Armonk, NY",Insurance,Company - Public,10000+ employees,3.7,NaN,112.0,NaN,41.1264849,-73.71401949999999,NY
54,Data Scientist,80000,109500,139000,Northrop Grumman,"San Diego, CA",Aerospace & Defense,Company - Public,10000+ employees,3.7,136.2,106.7,57399,32.715738,-117.1610838,CA
55,Data Scientist,56000,75500,95000,Sartorius,"Albuquerque, NM",Biotech & Pharmaceuticals,Company - Public,5001 to 10000 employees,3.5,92.9,73.6,39994,35.0843859,-106.650422,NM
56,Data Scientist,120000,154500,189000,Netskope,"San Francisco, CA",Information Technology,Company - Private,501 to 1000 employees,4.1,178.6,150.5,86130,37.7749295,-122.4194155,CA
57,Data Scientist,111000,143500,176000,1904labs,"Saint Louis, MO",Information Technology,Company - Private,51 to 200 employees,4.7,NaN,139.8,NaN,38.6270025,-90.19940419999999,MO
58,Data Scientist,54000,73500,93000,ClearOne Advantage,"Baltimore, MD",Finance,Company - Private,501 to 1000 employees,4.1,107.0,71.6,32546,39.2903848,-76.6121893,MD
59,Data Scientist,71000,95000,119000,CyrusOne,"Dallas, TX",Real Estate,Company - Public,201 to 500 employees,3.4,98.5,92.6,57353,32.7766642,-96.79698789999999,TX
60,Senior Data Scientist,82000,107000,132000,The David J. Joseph Company,"Cincinnati, OH",Mining & Metals,Subsidiary or Business Segment,201 to 500 employees,4.4,92.4,104.2,71593,39.1031182,-84.5120196,OH
61,Data Scientist,84000,115000,146000,USEReady,"New York, NY",Business Services,Company - Private,201 to 500 employees,4.3,128.0,112.0,65976,40.7127753,-74.0059728,NY
62,Senior Risk Data Scientist,107000,139500,172000,Bill.com,"Palo Alto, CA",Finance,Company - Public,501 to 1000 employees,3.8,NaN,135.9,NaN,37.4418834,-122.1430195,CA
63,Data Scientist in Artificial Intelligence Early Career,49000,67000,85000,Pacific Northwest National Laboratory,"Richland, WA","Oil, Gas, Energy & Utilities",Government,1001 to 5000 employees,3.8,NaN,65.3,NaN,46.28042000000001,-119.2751996,WA
64,Data Scientist,61000,85000,109000,DICK'S Sporting Goods - Corporate,"Coraopolis, PA",Retail,Company - Public,10000+ employees,3.8,NaN,82.8,NaN,40.5184013,-80.1667247,PA
65,Data Scientist,88000,118000,148000,Berg Health,"Framingham, MA",Biotech & Pharmaceuticals,Company - Private,51 to 200 employees,2.8,NaN,115.0,NaN,42.279286,-71.4161565,MA
66,Data Scientist,60000,79500,99000,Oversight Systems,"Atlanta, GA",Information Technology,Company - Private,51 to 200 employees,4.7,100.3,77.5,41165,33.7489954,-84.3879824,GA
67,Data Scientist - Research,41000,56500,72000,C Space,"Boston, MA",Business Services,Company - Public,201 to 500 employees,3.1,132.6,55.0,5711,42.3600825,-71.0588801,MA
68,Data Scientist,96000,128500,161000,"Numeric, LLC","Philadelphia, PA",Business Services,Company - Private,1 to 50 employees,3.2,103.4,125.2,88938,39.9525839,-75.1652215,PA
69,R&D Data Analysis Scientist,65000,97500,130000,HP Inc.,"Vancouver, WA",Information Technology,Company - Public,10000+ employees,4.0,NaN,95.0,NaN,45.6280277,-122.673865,WA
70,Analytics Consultant,52000,66500,81000,SpringML,"Indianapolis, IN",Information Technology,Company - Private,1 to 50 employees,4.4,90.2,64.8,31995,39.768403,-86.158068,IN
71,"Director, Data Science",139000,179500,220000,Grainger,"Lake Forest, IL",Business Services,Company - Public,10000+ employees,3.6,NaN,174.9,NaN,42.2586342,-87.840625,IL
72,Scientist,50000,76000,102000,EAG Laboratories,"Maryland Heights, MO",Business Services,Subsidiary or Business Segment,501 to 1000 employees,2.7,NaN,74.0,NaN,38.7131073,-90.42984009999999,MO
73,Data Scientist SR,85000,112000,139000,The Buffalo Group,"Charlottesville, VA",Information Technology,Company - Private,501 to 1000 employees,3.9,102.1,109.1,72911,38.0293059,-78.47667810000002,VA
74,Data Scientist,74000,98000,122000,Carmeuse,"Pittsburgh, PA",Mining & Metals,Company - Private,1001 to 5000 employees,3.1,93.1,95.5,62396,40.44062479999999,-79.9958864,PA
75,R&D Sr Data Scientist,99000,128000,157000,HP Inc.,"Vancouver, WA",Information Technology,Company - Public,10000+ employees,4.0,NaN,124.7,NaN,45.6280277,-122.673865,WA
76,Customer Data Scientist/Sales Engineer (Bay,79000,150500,222000,h2o.ai,"Mountain View, CA",Information Technology,Company - Private,201 to 500 employees,4.3,NaN,146.6,NaN,37.3860517,-122.0838511,CA
77,Research Scientist,57000,87500,118000,GNS Healthcare,"Cambridge, MA",Biotech & Pharmaceuticals,Company - Private,51 to 200 employees,1.9,NaN,85.2,NaN,42.3736158,-71.10973349999999,MA
78,Data Scientist,83000,110000,137000,Peraton,"Chantilly, VA",Aerospace & Defense,Company - Private,1001 to 5000 employees,3.3,NaN,107.2,NaN,38.8942786,-77.43109919999999,VA
79,Data Scientist,86000,113500,141000,Pactera,"San Jose, CA",Information Technology,Company - Private,10000+ employees,4.4,173.5,110.6,47128,37.33874,-121.8852525,CA
80,Data Scientist,94000,124000,154000,Nurx,"San Francisco, CA",Health Care,Company - Private,51 to 200 employees,3.9,178.6,120.8,55646,37.7749295,-122.4194155,CA
81,Jr. Business Data Analyst,37000,56500,76000,webfx.com,"Harrisburg, PA",Business Services,Company - Private,201 to 500 employees,4.7,95.8,55.0,19793,40.2731911,-76.8867008,PA
82,Data Scientist,100000,130000,160000,Johns Hopkins University Applied Physics Laboratory,"Laurel, MD",Aerospace & Defense,Nonprofit Organization,5001 to 10000 employees,4.5,NaN,126.7,NaN,39.0992752,-76.8483061,MD
83,Data Analyst,55000,77500,100000,Productive Edge,"Chicago, IL",Information Technology,Company - Private,51 to 200 employees,4.3,100.1,75.5,39189,41.8781136,-87.6297982,IL
84,Data Engineer,60000,87000,114000,Excella Consulting,"Arlington, VA",Business Services,Company - Private,201 to 500 employees,4.0,NaN,84.8,NaN,38.8799697,-77.1067698,VA
85,Data Analyst,39000,53500,68000,Gensco,"Tacoma, WA",Business Services,Company - Private,501 to 1000 employees,4.4,NaN,52.1,NaN,47.2528768,-122.4442906,WA
86,Staff Data Scientist - Technology,106000,139000,172000,Walmart,"Plano, TX",Retail,Company - Public,10000+ employees,3.2,NaN,135.4,NaN,33.0198431,-96.6988856,TX
87,Data Scientist,86000,114000,142000,Logic20/20,"San Jose, CA",Business Services,Company - Private,201 to 500 employees,3.8,173.5,111.1,47642,37.33874,-121.8852525,CA
88,Data Scientist,64000,85500,107000,goTRG,"Miami, FL",Information Technology,Company - Private,501 to 1000 employees,4.2,110.1,83.3,43368,25.7616798,-80.1917902,FL
89,Data Management Specialist,31000,48000,65000,NMR Consulting,"Huntsville, AL",Information Technology,Company - Private,51 to 200 employees,4.5,91.3,46.8,13099,34.7303688,-86.5861037,AL
90,E-Commerce Data Analyst,34000,48000,62000,iSeatz,"New Orleans, LA",Information Technology,Company - Private,51 to 200 employees,3.5,92.4,46.8,12678,29.95106579999999,-90.0715323,LA
91,Sr. Scientist II,117000,174000,231000,Nektar Therapeutics,"San Francisco, CA",Biotech & Pharmaceuticals,Company - Public,201 to 500 employees,3.5,178.6,169.5,105632,37.7749295,-122.4194155,CA
92,Insurance Data Scientist,64000,85000,106000,TransUnion,"Atlanta, GA",Finance,Company - Public,5001 to 10000 employees,3.9,100.3,82.8,46605,33.7489954,-84.3879824,GA
93,Data Modeler,79000,106500,134000,IT Concepts,"Landover, MD",Information Technology,Company - Private,51 to 200 employees,4.7,NaN,103.8,NaN,38.9340002,-76.8966397,MD
94,Data Analyst / Scientist,52000,72500,93000,Scientific Research Corporation,"Patuxent River, MD",Information Technology,Company - Private,1001 to 5000 employees,4.2,NaN,70.6,NaN,38.2772663,-76.42295,MD
95,Scientist,55000,85500,116000,General Dynamics Information Technology,"Suitland, MD",Information Technology,Subsidiary or Business Segment,10000+ employees,3.4,NaN,83.3,NaN,38.8473762,-76.9239727,MD
96,Data Scientist,72000,97500,123000,MITRE,"McLean, VA",Government,Nonprofit Organization,5001 to 10000 employees,3.2,NaN,95.0,NaN,38.9338676,-77.1772604,VA
97,Data Scientist,74000,99000,124000,The Buffalo Group,"Fort Belvoir, VA",Information Technology,Company - Private,501 to 1000 employees,3.9,NaN,96.5,NaN,38.71887160000001,-77.15426839999999,VA
98,Data Analyst,40000,56500,73000,DentaQuest,"Milwaukee, WI",Insurance,Company - Private,1001 to 5000 employees,3.1,93.8,55.0,20559,43.0389025,-87.9064736,WI
99,Lead Data Scientist,102000,133000,164000,Redjack,"Silver Spring, MD",Information Technology,Company - Private,1 to 50 employees,4.1,NaN,129.6,NaN,38.99066570000001,-77.026088,MD
100,Data Scientist,89000,121000,153000,7Park Data,"New York, NY",Business Services,Company - Private,51 to 200 employees,3.8,128.0,117.9,72032,40.7127753,-74.0059728,NY
101,Data Scientist,61000,85500,110000,Rapid Response Monitoring,"Syracuse, NY",Business Services,Company - Private,501 to 1000 employees,4.7,95.1,83.3,49108,43.0481221,-76.14742439999999,NY
102,"Data Scientist, Rice University",65000,87500,110000,Trilogy Ed,"Houston, TX",Education,Subsidiary or Business Segment,1001 to 5000 employees,4.3,95.8,85.2,50790,29.7604267,-95.3698028,TX
103,Senior Data Scientist,200000,237500,275000,Gallup,"Washington, DC",Business Services,Company - Private,1001 to 5000 employees,4.2,120.1,231.4,191552,38.9071923,-77.0368707,DC
104,Data Engineer,68000,95500,123000,CapTech,"Charlotte, NC",Information Technology,Company - Private,1001 to 5000 employees,3.9,97.9,93.0,57993,35.2270869,-80.8431267,NC
105,Senior Data Scientist,80000,104500,129000,American Axle & Manufacturing,"Southfield, MI",Manufacturing,Company - Public,10000+ employees,3.3,NaN,101.8,NaN,42.4733688,-83.2218731,MI
106,Financial Data Analyst,41000,56500,72000,CentralReach,"Matawan, NJ",Information Technology,Company - Private,201 to 500 employees,4.7,NaN,55.0,NaN,40.41482999999999,-74.2295891,NJ
107,Senior Data Analyst,39000,55000,71000,Integrate,"Phoenix, AZ",Information Technology,Company - Private,201 to 500 employees,4.3,104.3,53.6,15104,33.4483771,-112.0740373,AZ
108,Research Scientist,38000,61500,85000,Boys Town Hospital,"Omaha, NE",Health Care,Hospital,1001 to 5000 employees,2.9,92.9,59.9,25932,41.2565369,-95.9345034,NE
109,Data Scientist,121000,157000,193000,Demandbase,"San Francisco, CA",Information Technology,Company - Private,201 to 500 employees,4.5,178.6,153.0,88696,37.7749295,-122.4194155,CA
110,Data Engineer,54000,78000,102000,Sapphire Digital,"Lyndhurst, NJ",Information Technology,Company - Private,201 to 500 employees,3.4,NaN,76.0,NaN,40.81201710000001,-74.1243063,NJ
111,Data Scientist,83000,113500,144000,Takeda Pharmaceuticals,"Cambridge, MA",Biotech & Pharmaceuticals,Company - Public,10000+ employees,3.7,NaN,110.6,NaN,42.3736158,-71.10973349999999,MA
112,Data Scientist,120000,140000,160000,<intent>,"New York, NY",Information Technology,Company - Private,51 to 200 employees,4.6,128.0,136.4,91021,40.7127753,-74.0059728,NY
113,Data Scientist,102000,132500,163000,Formation,"San Francisco, CA",Information Technology,Company - Private,51 to 200 employees,3.2,178.6,129.1,64165,37.7749295,-122.4194155,CA
114,Data Engineer,76000,108000,140000,Autodesk,"San Francisco, CA",Information Technology,Company - Public,5001 to 10000 employees,4.0,178.6,105.2,39634,37.7749295,-122.4194155,CA
115,Ag Data Scientist,60000,80500,101000,Beck's Hybrids,"Atlanta, IN",Agriculture & Forestry,Company - Private,501 to 1000 employees,4.6,NaN,78.4,NaN,40.2153151,-86.0263746,IN
116,Data Scientist,82000,107500,133000,DrFirst,"Rockville, MD",Health Care,Company - Private,201 to 500 employees,2.8,NaN,104.7,NaN,39.0839973,-77.1527578,MD
117,Data Engineer,65000,95000,125000,Object Partners,"Minneapolis, MN",Business Services,Company - Private,51 to 200 employees,4.7,105.4,92.6,54712,44.977753,-93.2650108,MN
118,Data Scientist II,91000,119500,148000,L.A. Care Health Plan,"Los Angeles, CA",Health Care,Nonprofit Organization,1001 to 5000 employees,3.0,140.6,116.4,65671,34.0522342,-118.2436849,CA
119,Senior Data Engineer,95000,134000,173000,Red Ventures,"Charlotte, NC",Business Services,Company - Private,1001 to 5000 employees,3.2,97.9,130.6,96585,35.2270869,-80.8431267,NC
120,Data Scientist,77000,100500,124000,Quick Base,"Cambridge, MA",Information Technology,Company - Private,201 to 500 employees,4.4,NaN,97.9,NaN,42.3736158,-71.10973349999999,MA
121,Data Scientist,80000,107500,135000,The E.W. Scripps Company,"Cincinnati, OH",Media,Company - Public,1001 to 5000 employees,3.5,92.4,104.7,72106,39.1031182,-84.5120196,OH
122,Data Engineer,85000,122000,159000,Upside Business Travel,"Washington, DC",Information Technology,Company - Private,51 to 200 employees,4.0,120.1,118.9,76082,38.9071923,-77.0368707,DC
123,Data Engineer,80000,92500,105000,Equity Residential,"Chicago, IL",Real Estate,Company - Public,1001 to 5000 employees,4.3,100.1,90.1,54174,41.8781136,-87.6297982,IL
124,Data Analyst,43000,62000,81000,Synagro,"Baltimore, MD",Business Services,Company - Private,501 to 1000 employees,2.3,107.0,60.4,21050,39.2903848,-76.6121893,MD
125,Project Scientist,29000,39500,50000,Alliance Source Testing,"Alabaster, AL",Business Services,Unknown,51 to 200 employees,4.0,NaN,38.5,NaN,33.2442813,-86.8163773,AL
126,Data Scientist,82000,107500,133000,Accuride International,"Santa Fe Springs, Los Angeles, CA",Manufacturing,Company - Private,1001 to 5000 employees,3.6,NaN,104.7,NaN,33.9472359,-118.0853451,Los Angeles
127,Data Analytics Manager,26000,40500,55000,Full Potential Solutions,"Kansas City, MO",Business Services,Company - Private,501 to 1000 employees,3.8,91.6,39.5,5491,39.0997265,-94.5785667,MO
128,Senior Machine Learning (ML) Engineer / Data Scientist - Cyber Security Analytics,61000,89500,118000,Visa Inc.,"Ashburn, VA",Information Technology,Company - Public,10000+ employees,3.7,NaN,87.2,NaN,39.0437567,-77.4874416,VA
129,Data Scientist,60000,81000,102000,Maven Wave Partners,"Chicago, IL",Business Services,Company - Private,201 to 500 employees,4.4,100.1,78.9,42679,41.8781136,-87.6297982,IL
130,Senior Data Scientist,112000,147000,182000,Novetta,"Herndon, VA",Information Technology,Company - Private,501 to 1000 employees,4.0,NaN,143.2,NaN,38.9695545,-77.3860976,VA
131,Data Scientist,64000,85000,106000,"First Command Financial Services, Inc.","Fort Worth, TX",Finance,Company - Private,1001 to 5000 employees,3.2,NaN,82.8,NaN,32.7554883,-97.3307658,TX
132,Associate Scientist,51000,81500,112000,Pharmavite,"Valencia, CA",Manufacturing,Company - Private,1001 to 5000 employees,2.9,NaN,79.4,NaN,34.419837,-118.5627013,CA
133,"Scientist 2, QC Viral Vector",113000,168000,223000,BioMarin Pharmaceutical,"Novato, CA",Biotech & Pharmaceuticals,Company - Public,1001 to 5000 employees,3.8,NaN,163.7,NaN,38.1074198,-122.5697032,CA
134,Machine Learning Engineer,72000,100500,129000,Stratagem Group,"Aurora, CO",Aerospace & Defense,Company - Private,1 to 50 employees,4.3,NaN,97.9,NaN,39.7294319,-104.8319195,CO
135,Data Scientist/ML Engineer,71000,97000,123000,PA Consulting,"New York, NY",Business Services,Company - Private,1001 to 5000 employees,3.4,128.0,94.5,48014,40.7127753,-74.0059728,NY
136,Data Scientist,64000,85000,106000,ManTech,"Chantilly, VA",Business Services,Company - Public,5001 to 10000 employees,4.1,NaN,82.8,NaN,38.8942786,-77.43109919999999,VA
137,Customer Data Scientist,118000,153500,189000,h2o.ai,"Mountain View, CA",Information Technology,Company - Private,201 to 500 employees,4.3,NaN,149.6,NaN,37.3860517,-122.0838511,CA
138,Data Engineer,120000,132500,145000,Gridiron IT,"Tampa, FL",Information Technology,Company - Private,51 to 200 employees,5.0,101.4,129.1,93707,27.950575,-82.4571776,FL
139,Data Engineer,80000,100000,120000,Productive Edge,"Chicago, IL",Information Technology,Company - Private,51 to 200 employees,4.3,100.1,97.4,61667,41.8781136,-87.6297982,IL
140,Sr. Data Scientist,80000,105000,130000,Evolve Vacation Rental,"Denver, CO",Travel & Tourism,Company - Private,201 to 500 employees,3.7,112.1,102.3,62105,39.7392358,-104.990251,CO
141,Data Engineer 4 - Contract,59000,87000,115000,The Church of Jesus Christ of Latter-day Saints,"Riverton, UT",Non-Profit,Nonprofit Organization,10000+ employees,4.2,NaN,84.8,NaN,40.521893,-111.9391023,UT
142,Data Analyst - Asset Management,71000,103500,136000,Maximus Real Estate Partners,"San Francisco, CA",Real Estate,Company - Private,51 to 200 employees,4.3,178.6,100.8,35118,37.7749295,-122.4194155,CA
143,Senior Research Scientist - Embedded System Development for DevOps,81000,124000,167000,Software Engineering Institute,"Pittsburgh, PA",Education,College / University,501 to 1000 employees,2.6,93.1,120.8,88364,40.44062479999999,-79.9958864,PA
144,Data Scientist - Bioinformatics,49000,67000,85000,PNNL,"Richland, WA","Oil, Gas, Energy & Utilities",Government,1001 to 5000 employees,3.8,NaN,65.3,NaN,46.28042000000001,-119.2751996,WA
145,Data Engineer,60000,87000,114000,AVANADE,"Washington, DC",Information Technology,Company - Private,10000+ employees,3.9,120.1,84.8,41081,38.9071923,-77.0368707,DC
146,Customer Data Scientist/Sales Engineer,71000,137500,204000,h2o.ai,"Chicago, IL",Information Technology,Company - Private,201 to 500 employees,4.3,100.1,134.0,99233,41.8781136,-87.6297982,IL
147,Lead Data Scientist,75000,100000,125000,PatientPoint,"Cincinnati, OH",Business Services,Company - Private,201 to 500 employees,3.8,92.4,97.4,64614,39.1031182,-84.5120196,OH
148,MongoDB Data Engineer II,77000,106500,136000,BlueCross BlueShield of Tennessee,"Chattanooga, TN",Insurance,Nonprofit Organization,5001 to 10000 employees,3.8,91.2,103.8,71642,35.0457984,-85.3093995,TN
149,Senior Data Scientist Statistics,74000,98500,123000,PNNL,"Richland, WA","Oil, Gas, Energy & Utilities",Government,1001 to 5000 employees,3.8,NaN,96.0,NaN,46.28042000000001,-119.2751996,WA
150,Senior Data Analyst,44000,61000,78000,KnowBe4,"Clearwater, FL",Business Services,Company - Private,501 to 1000 employees,4.8,NaN,59.4,NaN,27.9658533,-82.8001026,FL
151,Senior Spark Engineer (Data Science),65000,106500,148000,KSM Consulting,"Indianapolis, IN",Business Services,Company - Private,51 to 200 employees,4.4,90.2,103.8,72024,39.768403,-86.158068,IN
152,Data Engineer,59000,84500,110000,Cogo Labs,"Cambridge, MA",Information Technology,Company - Private,51 to 200 employees,3.9,NaN,82.3,NaN,42.3736158,-71.10973349999999,MA
153,BI & Platform Analytics Manager,85000,109500,134000,Church & Dwight,"Ewing, NJ",Manufacturing,Company - Public,1001 to 5000 employees,3.4,NaN,106.7,NaN,40.2599864,-74.79091249999999,NJ
154,Lead Data Scientist,124000,164000,204000,MassMutual,"Boston, MA",Insurance,Company - Private,5001 to 10000 employees,3.6,132.6,159.8,113278,42.3600825,-71.0588801,MA
155,"Sr. Data Scientist - Analytics, Personalized Healthcare (PHC)",131000,169000,207000,Genentech,"South San Francisco, CA",Biotech & Pharmaceuticals,Subsidiary or Business Segment,10000+ employees,3.9,NaN,164.7,NaN,37.654656,-122.4077498,CA
156,Senior Data Scientist,110000,142000,174000,Juniper Networks,"Cupertino, CA",Telecommunications,Company - Public,5001 to 10000 employees,3.8,NaN,138.3,NaN,37.3229978,-122.0321823,CA
157,Pricipal Scientist Molecular and cellular biologist,52000,76500,101000,Takeda Pharmaceuticals,"Boston, MA",Biotech & Pharmaceuticals,Company - Public,10000+ employees,3.7,132.6,74.5,25726,42.3600825,-71.0588801,MA
158,"Data Scientist (Actuary, FSA or ASA)",81000,107000,133000,Legal & General America,"Frederick, MD",Insurance,Company - Private,501 to 1000 employees,3.8,NaN,104.2,NaN,39.41426879999999,-77.4105409,MD
159,Staff Data Scientist,132000,171500,211000,Western Digital,"San Jose, CA",Information Technology,Company - Public,10000+ employees,3.5,173.5,167.1,105120,37.33874,-121.8852525,CA
160,Senior Data Scientist / Machine Learning,73000,96000,119000,Health IQ,"Dallas, TX",Insurance,Company - Private,201 to 500 employees,3.9,98.5,93.5,58276,32.7766642,-96.79698789999999,TX
161,Data Scientist - Health Data Analytics,110000,142500,175000,Nuna,"San Francisco, CA",Information Technology,Company - Private,51 to 200 employees,4.2,178.6,138.8,74121,37.7749295,-122.4194155,CA
162,Data Engineer 5 - Contract (Remote),74000,107000,140000,The Church of Jesus Christ of Latter-day Saints,"Riverton, UT",Non-Profit,Nonprofit Organization,10000+ employees,4.2,NaN,104.2,NaN,40.521893,-111.9391023,UT
163,Senior Scientist - Neuroscience,100000,145000,190000,Sunovion,"Marlborough, MA",Biotech & Pharmaceuticals,Company - Private,1001 to 5000 employees,3.5,NaN,141.3,NaN,42.3459271,-71.5522874,MA
164,Senior Data Analyst,43000,61500,80000,National Student Clearinghouse,"Herndon, VA",Education,Nonprofit Organization,201 to 500 employees,2.9,NaN,59.9,NaN,38.9695545,-77.3860976,VA
165,"Risk and Analytics IT, Data Scientist",91000,120000,149000,State of Wisconsin Investment Board,"Madison, WI",Finance,Government,51 to 200 employees,2.7,99.5,116.9,81912,43.0721661,-89.4007501,WI
166,"Scientist, Analytical Development",42000,62000,82000,Rubius Therapeutics,"Cambridge, MA",Biotech & Pharmaceuticals,Company - Public,201 to 500 employees,4.4,NaN,60.4,NaN,42.3736158,-71.10973349999999,MA
167,Senior Data Scientist,116000,150500,185000,Autodesk,"San Francisco, CA",Information Technology,Company - Public,5001 to 10000 employees,4.0,178.6,146.6,82127,37.7749295,-122.4194155,CA
168,Analytics Manager,59000,87500,116000,OneMagnify,"Dearborn, MI",Business Services,Company - Private,201 to 500 employees,4.3,NaN,85.2,NaN,42.3222599,-83.17631449999999,MI
169,Data Engineer,48000,71500,95000,IZEA,"Winter Park, FL",Business Services,Company - Public,51 to 200 employees,4.2,NaN,69.7,NaN,28.5999998,-81.33923519999999,FL
170,Digital Marketing & ECommerce Data Analyst,31000,51500,72000,Vionic Group,"San Rafael, CA",Retail,Subsidiary or Business Segment,51 to 200 employees,3.6,NaN,50.2,NaN,37.9735346,-122.5310874,CA
171,Sr. Scientist - Digital & Image Analysis/Computational Pathology,105000,151500,198000,Takeda Pharmaceuticals,"San Diego, CA",Biotech & Pharmaceuticals,Company - Public,10000+ employees,3.7,136.2,147.6,99378,32.715738,-117.1610838,CA
172,Senior Data Analyst,55000,77500,100000,Dodge Data & Analytics,"Hamilton, NJ",Information Technology,Company - Private,201 to 500 employees,2.8,NaN,75.5,NaN,40.2115109,-74.6796651,NJ
173,Principal Scientist - Immunologist,98000,140000,182000,Takeda Pharmaceuticals,"Boston, MA",Biotech & Pharmaceuticals,Company - Public,10000+ employees,3.7,132.6,136.4,89260,42.3600825,-71.0588801,MA
174,Senior Data Scientist,73000,98500,124000,Plymouth Rock Assurance,"Woodbridge, NJ",Insurance,Company - Private,1001 to 5000 employees,3.3,NaN,96.0,NaN,40.5575986,-74.2846022,NJ
175,"Sr. Scientist, Quantitative Translational Sciences",117000,161500,206000,Takeda Pharmaceuticals,"Boston, MA",Biotech & Pharmaceuticals,Company - Public,10000+ employees,3.7,132.6,157.3,110712,42.3600825,-71.0588801,MA
176,Sr. Data Scientist II,111000,147000,183000,Argo Group US,"New York, NY",Insurance,Company - Public,1001 to 5000 employees,3.4,128.0,143.2,98000,40.7127753,-74.0059728,NY
177,Excel / VBA / SQL Data Analyst,44000,61000,78000,Associated Electric Cooperative,"Springfield, MO","Oil, Gas, Energy & Utilities",Company - Private,501 to 1000 employees,4.1,86.7,59.4,27792,37.2089572,-93.29229889999999,MO
178,Machine Learning Research Scientist,81000,120000,159000,Software Engineering Institute,"Pittsburgh, PA",Education,College / University,501 to 1000 employees,2.6,93.1,116.9,84361,40.44062479999999,-79.9958864,PA
179,"VP, Data Science",83000,124500,166000,PennyMac,"Phoenix, AZ",Finance,Company - Public,1001 to 5000 employees,3.2,104.3,121.3,84591,33.4483771,-112.0740373,AZ
180,Senior Data Scientist,114000,148000,182000,Zest AI,"Burbank, CA",Finance,Company - Private,51 to 200 employees,3.9,NaN,144.2,NaN,34.1808392,-118.3089661,CA
181,Radar Data Analyst,42000,59000,76000,DECISIVE ANALYTICS Corporation,"Huntsville, AL",Aerospace & Defense,Company - Private,51 to 200 employees,4.7,91.3,57.5,24081,34.7303688,-86.5861037,AL
182,PL Actuarial-Lead Data Scientist,114000,146500,179000,The Hanover Insurance Group,"Worcester, MA",Insurance,Company - Public,5001 to 10000 employees,3.7,113.2,142.7,103150,42.2625932,-71.8022934,MA
183,PV Scientist,60000,91500,123000,Karyopharm Therapeutics Inc.,"Newton, MA",Biotech & Pharmaceuticals,Company - Public,201 to 500 employees,2.9,NaN,89.1,NaN,42.3370413,-71.20922139999999,MA
184,Senior Data & Machine Learning Scientist,100000,133000,166000,Tempus Labs,"Chicago, IL",Biotech & Pharmaceuticals,Company - Private,501 to 1000 employees,3.0,100.1,129.6,94717,41.8781136,-87.6297982,IL
185,Principal Data Scientist (Computational Chemistry),108000,140500,173000,Recursion Pharmaceuticals,"Salt Lake City, UT",Biotech & Pharmaceuticals,Company - Private,51 to 200 employees,4.7,105.9,136.9,99991,40.7607793,-111.8910474,UT
186,Data Engineer,48000,70500,93000,P2 Energy Solutions,"Lafayette, LA",Information Technology,Company - Private,501 to 1000 employees,3.7,89.6,68.7,36227,30.2240897,-92.0198427,LA
187,"Principal Scientist, Chemistry & Immunology",54000,84500,115000,Rochester Regional Health,"Rochester, NY",Health Care,Hospital,10000+ employees,3.3,96.6,82.3,47508,43.15657789999999,-77.6088465,NY
188,Software Engineer - Data Visualization,60000,93500,127000,ClearEdge,"Annapolis Junction, MD",Information Technology,Company - Private,51 to 200 employees,4.0,NaN,91.1,NaN,39.1202934,-76.77693239999999,MD
189,"Scientist/Senior Scientist, Autoimmune",90000,134500,179000,Rubius Therapeutics,"Cambridge, MA",Biotech & Pharmaceuticals,Company - Public,201 to 500 employees,4.4,NaN,131.0,NaN,42.3736158,-71.10973349999999,MA
190,Staff Machine Learning Engineer,138000,181000,224000,Tapjoy,"San Francisco, CA",Information Technology,Company - Private,201 to 500 employees,3.9,178.6,176.3,112611,37.7749295,-122.4194155,CA
191,"Principal Scientist, Hematology",54000,84500,115000,Rochester Regional Health,"Rochester, NY",Health Care,Hospital,10000+ employees,3.3,96.6,82.3,47508,43.15657789999999,-77.6088465,NY
192,Lead Data Engineer,190000,205000,220000,Credit Sesame,"Mountain View, CA",Information Technology,Company - Private,51 to 200 employees,4.1,NaN,199.7,NaN,37.3860517,-122.0838511,CA
193,Marketing Data Analyst,35000,48500,62000,San Manuel Casino,"Highland, CA","Arts, Entertainment & Recreation",Company - Private,1001 to 5000 employees,3.6,NaN,47.3,NaN,34.1211873,-117.2015791,CA
194,R&D Specialist/ Food Scientist,39000,52500,66000,Teasdale Latin Foods,"Hoopeston, IL",Manufacturing,Company - Private,501 to 1000 employees,2.4,NaN,51.1,NaN,40.4672587,-87.6683573,IL
195,Senior Research Scientist-Machine Learning,81000,124000,167000,Software Engineering Institute,"Pittsburgh, PA",Education,College / University,501 to 1000 employees,2.6,93.1,120.8,88364,40.44062479999999,-79.9958864,PA
196,Analytics Manager - Data Mart,42000,64000,86000,Central California Alliance for Health,"Scotts Valley, CA",Health Care,Nonprofit Organization,501 to 1000 employees,3.5,NaN,62.4,NaN,37.048345,-122.0168296,CA
197,Sr. Data Engineer - Contract-to-Hire (Java),69000,98000,127000,Pilot Flying J Travel Centers LLC,"Knoxville, TN",Retail,Company - Private,10000+ employees,3.0,91.6,95.5,62970,35.9606384,-83.9207392,TN
198,Food Scientist - Developer,40000,54000,68000,Palermo's Pizza,"Milwaukee, WI",Manufacturing,Company - Private,501 to 1000 employees,3.3,93.8,52.6,18095,43.0389025,-87.9064736,WI
199,Staff Scientist-Downstream Process Development,49000,81000,113000,Advanced BioScience Laboratories,"Rockville, MD",Biotech & Pharmaceuticals,Company - Private,201 to 500 employees,2.7,NaN,78.9,NaN,39.0839973,-77.1527578,MD
200,Sr. Data Engineer,75000,107500,140000,Echo Global Logistics,"Chicago, IL",Transportation & Logistics,Company - Public,1001 to 5000 employees,3.4,100.1,104.7,69160,41.8781136,-87.6297982,IL
201,Data Scientist - Quantitative,86000,112500,139000,Truckstop.com,"Chicago, IL",Transportation & Logistics,Company - Private,501 to 1000 employees,3.8,100.1,109.6,74189,41.8781136,-87.6297982,IL
202,Data Scientist,66000,89000,112000,Lockheed Martin,"Herndon, VA",Aerospace & Defense,Company - Public,10000+ employees,3.7,NaN,86.7,NaN,38.9695545,-77.3860976,VA
203,Senior Research Statistician- Data Scientist,76000,100500,125000,Acuity Insurance,"Sheboygan, WI",Insurance,Company - Private,1001 to 5000 employees,4.8,89.7,97.9,66160,43.7508284,-87.71453,WI
204,"Business Data Analyst, SQL",44000,65000,86000,Fareportal,"New York, NY",Travel & Tourism,Company - Private,1001 to 5000 employees,3.8,128.0,63.3,15991,40.7127753,-74.0059728,NY
205,Data Scientist,53000,72500,92000,Credera,"Dallas, TX",Business Services,Subsidiary or Business Segment,201 to 500 employees,4.3,98.5,70.6,34772,32.7766642,-96.79698789999999,TX
206,Senior Data Analyst,44000,61000,78000,KnowBe4,"Clearwater, FL",Business Services,Company - Private,501 to 1000 employees,4.8,NaN,59.4,NaN,27.9658533,-82.8001026,FL
207,BI & Platform Analytics Manager,85000,109500,134000,Church & Dwight,"Ewing, NJ",Manufacturing,Company - Public,1001 to 5000 employees,3.4,NaN,106.7,NaN,40.2599864,-74.79091249999999,NJ
208,Data Engineer,59000,84500,110000,Cogo Labs,"Cambridge, MA",Information Technology,Company - Private,51 to 200 employees,3.9,NaN,82.3,NaN,42.3736158,-71.10973349999999,MA
209,Data Scientist,64000,87500,111000,Spectrum Communications and Consulting,"Chicago, IL",Business Services,Company - Private,51 to 200 employees,3.4,100.1,85.2,49145,41.8781136,-87.6297982,IL
210,Data Analyst,65000,92500,120000,NCSOFT,"San Mateo, CA",Media,Company - Public,1001 to 5000 employees,3.1,NaN,90.1,NaN,37.5629917,-122.3255254,CA
211,Associate Data Scientist/Computer Scientist,60000,81500,103000,MITRE,"McLean, VA",Government,Nonprofit Organization,5001 to 10000 employees,3.2,NaN,79.4,NaN,38.9338676,-77.1772604,VA
212,Business Intelligence Analyst / Developer,53000,79000,105000,"Dayton Freight Lines, Inc.","Dayton, OH",Transportation & Logistics,Company - Private,1001 to 5000 employees,4.3,88.4,77.0,45206,39.7589478,-84.1916069,OH
213,Lead Data Scientist,124000,164000,204000,MassMutual,"Boston, MA",Insurance,Company - Private,5001 to 10000 employees,3.6,132.6,159.8,113278,42.3600825,-71.0588801,MA
214,"Sr. Data Scientist - Analytics, Personalized Healthcare (PHC)",131000,169000,207000,Genentech,"South San Francisco, CA",Biotech & Pharmaceuticals,Subsidiary or Business Segment,10000+ employees,3.9,NaN,164.7,NaN,37.654656,-122.4077498,CA
215,Senior Data Scientist,110000,142000,174000,Juniper Networks,"Cupertino, CA",Telecommunications,Company - Public,5001 to 10000 employees,3.8,NaN,138.3,NaN,37.3229978,-122.0321823,CA
216,Data Analyst,33000,47500,62000,Community Action Partnership of San Luis Obispo,"Parlier, CA",Non-Profit,Nonprofit Organization,501 to 1000 employees,2.8,NaN,46.3,NaN,36.6116174,-119.5270734,CA
217,Pricipal Scientist Molecular and cellular biologist,52000,76500,101000,Takeda Pharmaceuticals,"Boston, MA",Biotech & Pharmaceuticals,Company - Public,10000+ employees,3.7,132.6,74.5,25726,42.3600825,-71.0588801,MA
218,Data Analyst,48000,69000,90000,TrueAccord,"San Francisco, CA",Information Technology,Company - Private,51 to 200 employees,3.4,178.6,67.2,631,37.7749295,-122.4194155,CA
219,Data Analyst,34000,49000,64000,DRB Systems,"Meridian, ID",Information Technology,Company - Private,201 to 500 employees,4.0,NaN,47.7,NaN,43.6121087,-116.3915131,ID
220,Staff Data Scientist,132000,171500,211000,Western Digital,"San Jose, CA",Information Technology,Company - Public,10000+ employees,3.5,173.5,167.1,105120,37.33874,-121.8852525,CA
221,"Data Scientist (Actuary, FSA or ASA)",81000,107000,133000,Legal & General America,"Frederick, MD",Insurance,Company - Private,501 to 1000 employees,3.8,NaN,104.2,NaN,39.41426879999999,-77.4105409,MD
222,System and Data Analyst,42000,59000,76000,Corcentric,"Cherry Hill, NJ",Information Technology,Company - Private,201 to 500 employees,3.7,NaN,57.5,NaN,39.926813,-75.0246312,NJ
223,Data Scientist,66000,88500,111000,U.Group,"Indianapolis, IN",Information Technology,Company - Private,201 to 500 employees,3.5,90.2,86.2,53960,39.768403,-86.158068,IN
224,Data Engineer 5 - Contract (Remote),74000,107000,140000,The Church of Jesus Christ of Latter-day Saints,"Riverton, UT",Non-Profit,Nonprofit Organization,10000+ employees,4.2,NaN,104.2,NaN,40.521893,-111.9391023,UT
225,Digital Health Data Scientist,63000,86500,110000,Pfizer,"Cambridge, MA",Biotech & Pharmaceuticals,Company - Public,10000+ employees,4.0,NaN,84.3,NaN,42.3736158,-71.10973349999999,MA
226,Data Scientist,63000,84000,105000,SMC 3,"Louisville, KY",Transportation & Logistics,Nonprofit Organization,51 to 200 employees,4.3,91.6,81.8,48908,38.2526647,-85.7584557,KY
227,Data & Analytics Consultant (NYC),91000,114500,138000,Systems Evolution Inc.,"New York, NY",Business Services,Company - Private,201 to 500 employees,4.7,128.0,111.6,65566,40.7127753,-74.0059728,NY
228,Senior Scientist - Neuroscience,100000,145000,190000,Sunovion,"Marlborough, MA",Biotech & Pharmaceuticals,Company - Private,1001 to 5000 employees,3.5,NaN,141.3,NaN,42.3459271,-71.5522874,MA
229,Data Engineer,62000,88000,114000,Eventbrite,"Nashville, TN",Information Technology,Company - Public,1001 to 5000 employees,4.4,100.1,85.7,49658,36.1626638,-86.7816016,TN
230,Big Data Engineer - Chicago - Future Opportunity,71000,100000,129000,Centro,"Chicago, IL",Information Technology,Company - Private,501 to 1000 employees,4.1,100.1,97.4,61667,41.8781136,-87.6297982,IL
231,Senior Data Analyst,43000,61500,80000,National Student Clearinghouse,"Herndon, VA",Education,Nonprofit Organization,201 to 500 employees,2.9,NaN,59.9,NaN,38.9695545,-77.3860976,VA
232,Data Scientist,74000,96500,119000,comScore,"Portland, OR",Business Services,Company - Public,1001 to 5000 employees,2.5,116.5,94.0,51902,45.515232,-122.6783853,OR
233,Survey Data Analyst,55000,76000,97000,SullivanCotter,"Minneapolis, MN",Business Services,Company - Private,201 to 500 employees,4.2,105.4,74.0,35621,44.977753,-93.2650108,MN
234,Data Scientist,15000,15500,16000,NPD,"Port Washington, NY",Business Services,Company - Private,1001 to 5000 employees,3.9,NaN,15.1,NaN,40.8256561,-73.69818579999999,NY
235,Data Scientist,61000,83500,106000,Bakery Agency,"Austin, TX",Business Services,Company - Private,1 to 50 employees,4.3,106.6,81.4,42757,30.267153,-97.7430608,TX
236,"Risk and Analytics IT, Data Scientist",91000,120000,149000,State of Wisconsin Investment Board,"Madison, WI",Finance,Government,51 to 200 employees,2.7,99.5,116.9,81912,43.0721661,-89.4007501,WI
237,Data Scientist,127000,163000,199000,Genentech,"South San Francisco, CA",Biotech & Pharmaceuticals,Subsidiary or Business Segment,10000+ employees,3.9,NaN,158.8,NaN,37.654656,-122.4077498,CA
238,Lead Health Data Analyst - Front End,74000,100000,126000,Blue Cross & Blue Shield of Rhode Island,"Providence, RI",Insurance,Nonprofit Organization,501 to 1000 employees,3.4,111.5,97.4,57305,41.8239891,-71.4128343,RI
239,Research Scientist,33000,52500,72000,Boys Town,"Omaha, NE",Non-Profit,Nonprofit Organization,1001 to 5000 employees,3.8,92.9,51.1,16900,41.2565369,-95.9345034,NE
240,Junior Data Analyst,37000,50000,63000,The HSC Health Care System,"Washington, DC",Health Care,Nonprofit Organization,501 to 1000 employees,3.3,120.1,48.7,4028,38.9071923,-77.0368707,DC
241,SQL Data Engineer,67000,93000,119000,Pro-Sphere Tek,"Austin, TX",Business Services,Company - Private,201 to 500 employees,3.4,106.6,90.6,52200,30.267153,-97.7430608,TX
242,Data Scientist,72000,94500,117000,Ameritas Life Insurance Corp,"Cincinnati, OH",Insurance,Company - Private,1001 to 5000 employees,3.0,92.4,92.1,59174,39.1031182,-84.5120196,OH
243,Senior Data Scientist,116000,150500,185000,Autodesk,"San Francisco, CA",Information Technology,Company - Public,5001 to 10000 employees,4.0,178.6,146.6,82127,37.7749295,-122.4194155,CA
244,Data Scientist,78000,102000,126000,Genworth,"Raleigh, NC",Insurance,Company - Public,1001 to 5000 employees,3.7,99.7,99.4,63873,35.7795897,-78.6381787,NC
245,"Scientist, Analytical Development",42000,62000,82000,Rubius Therapeutics,"Cambridge, MA",Biotech & Pharmaceuticals,Company - Public,201 to 500 employees,4.4,NaN,60.4,NaN,42.3736158,-71.10973349999999,MA
246,Analytics Manager,59000,87500,116000,OneMagnify,"Dearborn, MI",Business Services,Company - Private,201 to 500 employees,4.3,NaN,85.2,NaN,42.3222599,-83.17631449999999,MI
247,Clinical Data Scientist,63000,84000,105000,Pfizer,"Groton, CT",Biotech & Pharmaceuticals,Company - Public,10000+ employees,4.0,NaN,81.8,NaN,41.3497456,-72.0790717,CT
248,Data Scientist,109000,143000,177000,Novetta,"Herndon, VA",Information Technology,Company - Private,501 to 1000 employees,4.0,NaN,139.3,NaN,38.9695545,-77.3860976,VA
249,"Sr. Data Scientist, Cyber-Security LT Contract",116000,155000,194000,"Numeric, LLC","Phila, PA",Business Services,Company - Private,1 to 50 employees,3.2,NaN,151.0,NaN,39.9525839,-75.1652215,PA
250,Data Engineer,48000,71500,95000,IZEA,"Winter Park, FL",Business Services,Company - Public,51 to 200 employees,4.2,NaN,69.7,NaN,28.5999998,-81.33923519999999,FL
251,Data Scientist,83000,108000,133000,Trace Data,"Oakland, CA",Insurance,Company - Private,51 to 200 employees,3.9,NaN,105.2,NaN,37.8043514,-122.2711639,CA
252,Sr. Scientist - Digital & Image Analysis/Computational Pathology,105000,151500,198000,Takeda Pharmaceuticals,"San Diego, CA",Biotech & Pharmaceuticals,Company - Public,10000+ employees,3.7,136.2,147.6,99378,32.715738,-117.1610838,CA
253,Digital Marketing & ECommerce Data Analyst,31000,51500,72000,Vionic Group,"San Rafael, CA",Retail,Subsidiary or Business Segment,51 to 200 employees,3.6,NaN,50.2,NaN,37.9735346,-122.5310874,CA
254,Principal Scientist - Immunologist,98000,140000,182000,Takeda Pharmaceuticals,"Boston, MA",Biotech & Pharmaceuticals,Company - Public,10000+ employees,3.7,132.6,136.4,89260,42.3600825,-71.0588801,MA
255,Senior Data Analyst,55000,77500,100000,Dodge Data & Analytics,"Hamilton, NJ",Information Technology,Company - Private,201 to 500 employees,2.8,NaN,75.5,NaN,40.2115109,-74.6796651,NJ
256,Insurance Financial Data Analyst,45000,63500,82000,Clearwater Analytics,"Boise, ID",Finance,Company - Private,501 to 1000 employees,4.2,NaN,61.9,NaN,43.6150186,-116.2023137,ID
257,Data Scientist,83000,109000,135000,"Tekvalley, Corp.","San Francisco, CA",Information Technology,Company - Private,1 to 50 employees,4.0,178.6,106.2,40661,37.7749295,-122.4194155,CA
258,Data Scientist,70000,96000,122000,BWX Technologies,"Oak Ridge, TN",Aerospace & Defense,Company - Public,5001 to 10000 employees,3.5,NaN,93.5,NaN,36.0103561,-84.26964490000002,TN
259,Data Engineer,70000,101000,132000,PennyMac,"Agoura Hills, CA",Finance,Company - Public,1001 to 5000 employees,3.2,NaN,98.4,NaN,34.1533395,-118.7616764,CA
260,Senior Data Scientist,73000,98500,124000,Plymouth Rock Assurance,"Woodbridge, NJ",Insurance,Company - Private,1001 to 5000 employees,3.3,NaN,96.0,NaN,40.5575986,-74.2846022,NJ
261,Data Engineer I - Azure,54000,77500,101000,Vermeer,"Pella, IA",Manufacturing,Company - Private,1001 to 5000 employees,3.9,NaN,75.5,NaN,41.4080327,-92.91640500000001,IA
262,"Sr. Scientist, Quantitative Translational Sciences",117000,161500,206000,Takeda Pharmaceuticals,"Boston, MA",Biotech & Pharmaceuticals,Company - Public,10000+ employees,3.7,132.6,157.3,110712,42.3600825,-71.0588801,MA
263,Sr. Data Scientist II,111000,147000,183000,Argo Group US,"New York, NY",Insurance,Company - Public,1001 to 5000 employees,3.4,128.0,143.2,98000,40.7127753,-74.0059728,NY
264,Data Scientist,68000,90000,112000,L&T Infotech,"San Ramon, CA",Information Technology,Company - Public,10000+ employees,3.5,NaN,87.7,NaN,37.7643595,-121.9539616,CA
265,Information Security Data Analyst,42000,58000,74000,OceanFirst Financial,"Red Bank, NJ",Finance,Company - Public,501 to 1000 employees,4.3,NaN,56.5,NaN,40.3470543,-74.0643065,NJ
266,Excel / VBA / SQL Data Analyst,44000,61000,78000,Associated Electric Cooperative,"Springfield, MO","Oil, Gas, Energy & Utilities",Company - Private,501 to 1000 employees,4.1,86.7,59.4,27792,37.2089572,-93.29229889999999,MO
267,Machine Learning Research Scientist,81000,120000,159000,Software Engineering Institute,"Pittsburgh, PA",Education,College / University,501 to 1000 employees,2.6,93.1,116.9,84361,40.44062479999999,-79.9958864,PA
268,Data Scientist,95000,128000,161000,Sotheby's,"New York, NY",Retail,Company - Public,1001 to 5000 employees,3.6,128.0,124.7,79012,40.7127753,-74.0059728,NY
269,Data Scientist,75000,99500,124000,First Tech Federal Credit Union,"Hillsboro, OR",Finance,Company - Private,1001 to 5000 employees,3.5,NaN,96.9,NaN,45.5201336,-122.9898149,OR
270,Data Scientist,72000,96000,120000,Amrock,"Detroit, MI",Real Estate,Company - Private,1001 to 5000 employees,3.6,93.2,93.5,60305,42.331427,-83.0457538,MI
271,Data Scientist,76000,101000,126000,Vanda Pharmaceuticals,"Washington, DC",Biotech & Pharmaceuticals,Company - Public,201 to 500 employees,2.3,120.1,98.4,55040,38.9071923,-77.0368707,DC
272,Senior Data Scientist,114000,148000,182000,Zest AI,"Burbank, CA",Finance,Company - Private,51 to 200 employees,3.9,NaN,144.2,NaN,34.1808392,-118.3089661,CA
273,"Data Scientist, Senior",108000,142000,176000,Novetta,"Fort Belvoir, VA",Information Technology,Company - Private,501 to 1000 employees,4.0,NaN,138.3,NaN,38.71887160000001,-77.15426839999999,VA
274,Senior Data Scientist,130000,169000,208000,CK-12 Foundation,"Palo Alto, CA",Education,Company - Private,1 to 50 employees,4.1,NaN,164.7,NaN,37.4418834,-122.1430195,CA
275,"VP, Data Science",83000,124500,166000,PennyMac,"Phoenix, AZ",Finance,Company - Public,1001 to 5000 employees,3.2,104.3,121.3,84591,33.4483771,-112.0740373,AZ
276,Radar Data Analyst,42000,59000,76000,DECISIVE ANALYTICS Corporation,"Huntsville, AL",Aerospace & Defense,Company - Private,51 to 200 employees,4.7,91.3,57.5,24081,34.7303688,-86.5861037,AL
277,CONSULTANT DATA ANALYTICS GROUP,37000,52500,68000,Opinion Dynamics,"San Diego, CA",Business Services,Company - Private,51 to 200 employees,4.2,136.2,51.1,331,32.715738,-117.1610838,CA
278,Data Engineer,52000,75500,99000,Applied Information Sciences,"Houston, TX",Information Technology,Company - Private,501 to 1000 employees,4.6,95.8,73.6,38884,29.7604267,-95.3698028,TX
279,Senior Data Scientist,105000,139000,173000,Swiss Re,"Armonk, NY",Insurance,Company - Public,10000+ employees,3.7,NaN,135.4,NaN,41.1264849,-73.71401949999999,NY
280,"Data Engineer, Data Engineering and Artifical Intelligence",71000,102500,134000,Takeda Pharmaceuticals,"Cambridge, MA",Biotech & Pharmaceuticals,Company - Public,10000+ employees,3.7,NaN,99.9,NaN,42.3736158,-71.10973349999999,MA
281,Staff Scientist,39000,60500,82000,WK Dickson,"Columbia, SC",Business Services,Company - Private,201 to 500 employees,4.4,91.9,58.9,25289,34.0007104,-81.0348144,SC
282,PL Actuarial-Lead Data Scientist,114000,146500,179000,The Hanover Insurance Group,"Worcester, MA",Insurance,Company - Public,5001 to 10000 employees,3.7,113.2,142.7,103150,42.2625932,-71.8022934,MA
283,"Associate Scientist/Scientist, Process Analytical Technology - Small Molecule Analytical Chemistry",88000,125000,162000,Genentech,"South San Francisco, CA",Biotech & Pharmaceuticals,Subsidiary or Business Segment,10000+ employees,3.9,NaN,121.8,NaN,37.654656,-122.4077498,CA
284,Sr. Data Analyst,60000,81000,102000,MassMutual,"Springfield, MA",Insurance,Company - Private,5001 to 10000 employees,3.6,106.5,78.9,40230,42.1014831,-72.589811,MA
285,Senior Data & Machine Learning Scientist,100000,133000,166000,Tempus Labs,"Chicago, IL",Biotech & Pharmaceuticals,Company - Private,501 to 1000 employees,3.0,100.1,129.6,94717,41.8781136,-87.6297982,IL
286,Program/Data Analyst,55000,77000,99000,General Dynamics Information Technology,"Washington, DC",Information Technology,Subsidiary or Business Segment,10000+ employees,3.4,120.1,75.0,31023,38.9071923,-77.0368707,DC
287,Data Engineer,67000,92000,117000,ManTech,"Herndon, VA",Business Services,Company - Public,5001 to 10000 employees,4.1,NaN,89.6,NaN,38.9695545,-77.3860976,VA
288,Senior Data Scientist: Causal & Predictive analytics AI Innovation Lab,92000,121000,150000,Novartis,"Cambridge, MA",Biotech & Pharmaceuticals,Company - Public,10000+ employees,3.8,NaN,117.9,NaN,42.3736158,-71.10973349999999,MA
289,"Principal Data Engineer, Data Platform & Insights",116000,162500,209000,Autodesk,"San Francisco, CA",Information Technology,Company - Public,5001 to 10000 employees,4.0,178.6,158.3,94136,37.7749295,-122.4194155,CA
290,RESEARCH SCIENTIST - BIOLOGICAL SAFETY,38000,60000,82000,Southwest Research Institute,"San Antonio, TX",Business Services,Nonprofit Organization,1001 to 5000 employees,3.9,92.7,58.5,24572,29.4251905,-98.4945922,TX
291,Big Data Engineer,62000,90500,119000,SpringML,"Indianapolis, IN",Information Technology,Company - Private,1 to 50 employees,4.4,90.2,88.2,56013,39.768403,-86.158068,IN
292,Data Scientist / Machine Learning Expert,86000,114500,143000,Novartis,"Cambridge, MA",Biotech & Pharmaceuticals,Company - Public,10000+ employees,3.8,NaN,111.6,NaN,42.3736158,-71.10973349999999,MA
293,Data Scientist,93000,121000,149000,Juniper Networks,"Sunnyvale, CA",Telecommunications,Company - Public,5001 to 10000 employees,3.8,NaN,117.9,NaN,37.36883,-122.0363496,CA
294,Senior Data Scientist,84000,110000,136000,The Integer Group,"Dallas, TX",Business Services,Subsidiary or Business Segment,501 to 1000 employees,2.2,98.5,107.2,72338,32.7766642,-96.79698789999999,TX
295,PV Scientist,60000,91500,123000,Karyopharm Therapeutics Inc.,"Newton, MA",Biotech & Pharmaceuticals,Company - Public,201 to 500 employees,2.9,NaN,89.1,NaN,42.3370413,-71.20922139999999,MA
296,Clinical Data Analyst,52000,70500,89000,ManTech,"Portsmouth, VA",Business Services,Company - Public,5001 to 10000 employees,4.1,NaN,68.7,NaN,36.8354258,-76.2982742,VA
297,Data Engineer,48000,70500,93000,P2 Energy Solutions,"Lafayette, LA",Information Technology,Company - Private,501 to 1000 employees,3.7,89.6,68.7,36227,30.2240897,-92.0198427,LA
298,Computational Chemist/Data Scientist,56000,76500,97000,PNNL,"Richland, WA","Oil, Gas, Energy & Utilities",Government,1001 to 5000 employees,3.8,NaN,74.5,NaN,46.28042000000001,-119.2751996,WA
299,Data Engineer,65000,92000,119000,MassMutual,"Springfield, MA",Insurance,Company - Private,5001 to 10000 employees,3.6,106.5,89.6,51212,42.1014831,-72.589811,MA
300,Principal Data Scientist (Computational Chemistry),108000,140500,173000,Recursion Pharmaceuticals,"Salt Lake City, UT",Biotech & Pharmaceuticals,Company - Private,51 to 200 employees,4.7,105.9,136.9,99991,40.7607793,-111.8910474,UT
301,Product Engineer  Data Science,63000,82000,101000,Esri,"Arlington, VA",Information Technology,Company - Private,1001 to 5000 employees,3.5,NaN,79.9,NaN,38.8799697,-77.1067698,VA
302,"Principal Scientist, Chemistry & Immunology",54000,84500,115000,Rochester Regional Health,"Rochester, NY",Health Care,Hospital,10000+ employees,3.3,96.6,82.3,47508,43.15657789999999,-77.6088465,NY
303,"Scientist/Senior Scientist, Autoimmune",90000,134500,179000,Rubius Therapeutics,"Cambridge, MA",Biotech & Pharmaceuticals,Company - Public,201 to 500 employees,4.4,NaN,131.0,NaN,42.3736158,-71.10973349999999,MA
304,Data Scientist,127000,164500,202000,Samba TV,"San Francisco, CA",Business Services,Company - Private,201 to 500 employees,3.3,178.6,160.3,96189,37.7749295,-122.4194155,CA
305,Market Data Analyst,31000,44000,57000,SV Microwave,"West Palm Beach, FL",Telecommunications,Company - Public,201 to 500 employees,3.4,NaN,42.9,NaN,26.7153424,-80.0533746,FL
306,Software Engineer - Data Visualization,60000,93500,127000,ClearEdge,"Annapolis Junction, MD",Information Technology,Company - Private,51 to 200 employees,4.0,NaN,91.1,NaN,39.1202934,-76.77693239999999,MD
307,Data Engineer,75000,109000,143000,SpringML,"Herndon, VA",Information Technology,Company - Private,1 to 50 employees,4.4,NaN,106.2,NaN,38.9695545,-77.3860976,VA
308,Staff Data Engineer,105000,149500,194000,Sumo Logic,"Austin, TX",Information Technology,Company - Private,501 to 1000 employees,3.8,106.6,145.7,108755,30.267153,-97.7430608,TX
309,Associate Data Engineer,45000,65500,86000,EAB,"Washington, DC",Business Services,Company - Private,1001 to 5000 employees,3.5,120.1,63.8,19527,38.9071923,-77.0368707,DC
310,Senior Data Scientist,95000,124500,154000,Brighthouse Financial,"Charlotte, NC",Insurance,Company - Public,1001 to 5000 employees,3.5,97.9,121.3,87040,35.2270869,-80.8431267,NC
311,Staff BI and Data Engineer,80000,114000,148000,Affinity Solutions,"San Jose, CA",Business Services,Company - Private,51 to 200 employees,2.9,173.5,111.1,47642,37.33874,-121.8852525,CA
312,Marketing Data Analyst,36000,49000,62000,Citadel Federal Credit Union,"Exton, PA",Finance,Nonprofit Organization,501 to 1000 employees,3.9,NaN,47.7,NaN,40.0325817,-75.6274583,PA
313,"Principal Scientist, Hematology",54000,84500,115000,Rochester Regional Health,"Rochester, NY",Health Care,Hospital,10000+ employees,3.3,96.6,82.3,47508,43.15657789999999,-77.6088465,NY
314,Data Analyst,50000,71000,92000,CALIBRE Systems,"Alexandria, VA",Information Technology,Company - Private,501 to 1000 employees,3.7,NaN,69.2,NaN,38.8048355,-77.0469214,VA
315,"Director - Data, Privacy and AI Governance",67000,101000,135000,MassMutual,"Boston, MA",Insurance,Company - Private,5001 to 10000 employees,3.6,132.6,98.4,50257,42.3600825,-71.0588801,MA
316,Data Scientist,82000,107000,132000,Esri,"Redlands, CA",Information Technology,Company - Private,1001 to 5000 employees,3.5,NaN,104.2,NaN,34.0563884,-117.2058765,CA
317,Data Scientist,85000,112500,140000,New England Biolabs,"Ipswich, MA",Biotech & Pharmaceuticals,Company - Private,201 to 500 employees,4.7,NaN,109.6,NaN,42.6791832,-70.8411558,MA
318,Staff Machine Learning Engineer,138000,181000,224000,Tapjoy,"San Francisco, CA",Information Technology,Company - Private,201 to 500 employees,3.9,178.6,176.3,112611,37.7749295,-122.4194155,CA
319,Information Security Data Analyst,42000,61000,80000,Motorola Solutions,"Chicago, IL",Information Technology,Company - Public,10000+ employees,3.7,100.1,59.4,22664,41.8781136,-87.6297982,IL
320,Lead Data Engineer,190000,205000,220000,Credit Sesame,"Mountain View, CA",Information Technology,Company - Private,51 to 200 employees,4.1,NaN,199.7,NaN,37.3860517,-122.0838511,CA
321,Scientist Manufacturing - Kentucky BioProcessing,68000,103500,139000,Reynolds American,"Owensboro, KY",Manufacturing,Company - Private,5001 to 10000 employees,3.1,86.6,100.8,70323,37.7719074,-87.1111676,KY
322,Data Analytics Project Manager,34000,63000,92000,MassMutual,"Springfield, MA",Insurance,Company - Private,5001 to 10000 employees,3.6,106.5,61.4,22268,42.1014831,-72.589811,MA
323,Consultant - Analytics Consulting,54000,62500,71000,Infosys,"Hartford, CT",Information Technology,Company - Public,10000+ employees,3.0,104.8,60.9,22405,41.7658043,-72.6733723,CT
324,Data Engineer,65000,94500,124000,Alignment Healthcare,"Orange, CA",Health Care,Company - Private,501 to 1000 employees,3.5,NaN,92.1,NaN,33.7879139,-117.8531007,CA
325,Marketing Data Analyst,35000,48500,62000,San Manuel Casino,"Highland, CA","Arts, Entertainment & Recreation",Company - Private,1001 to 5000 employees,3.6,NaN,47.3,NaN,34.1211873,-117.2015791,CA
326,Senior Scientist (Neuroscience),109000,154500,200000,Sunovion,"Marlborough, MA",Biotech & Pharmaceuticals,Company - Private,1001 to 5000 employees,3.5,NaN,150.5,NaN,42.3459271,-71.5522874,MA
327,Machine Learning Engineer - Regulatory,61000,87000,113000,Cboe Global Markets,"Lenexa, KS",Finance,Company - Public,501 to 1000 employees,3.7,NaN,84.8,NaN,38.9536174,-94.73357089999999,KS
328,R&D Specialist/ Food Scientist,39000,52500,66000,Teasdale Latin Foods,"Hoopeston, IL",Manufacturing,Company - Private,501 to 1000 employees,2.4,NaN,51.1,NaN,40.4672587,-87.6683573,IL
329,Data Engineer,43000,64500,86000,Guidepoint,"New York, NY",Business Services,Company - Private,501 to 1000 employees,3.2,128.0,62.8,15477,40.7127753,-74.0059728,NY
330,"Scientist, Bacteriology",74000,111500,149000,Cerus Corporation,"Concord, CA",Biotech & Pharmaceuticals,Company - Public,201 to 500 employees,2.1,NaN,108.6,NaN,37.9779776,-122.0310733,CA
331,"Associate Director, Platform and DevOps- Data Engineering and Aritifical Intelligence",113000,154500,196000,Takeda Pharmaceuticals,"Cambridge, MA",Biotech & Pharmaceuticals,Company - Public,10000+ employees,3.7,NaN,150.5,NaN,42.3736158,-71.10973349999999,MA
332,Senior Research Scientist-Machine Learning,81000,124000,167000,Software Engineering Institute,"Pittsburgh, PA",Education,College / University,501 to 1000 employees,2.6,93.1,120.8,88364,40.44062479999999,-79.9958864,PA
333,Senior Data Scientist,97000,128500,160000,Maven Wave Partners,"Chicago, IL",Business Services,Company - Private,201 to 500 employees,4.4,100.1,125.2,90201,41.8781136,-87.6297982,IL
334,Analytics Manager - Data Mart,42000,64000,86000,Central California Alliance for Health,"Scotts Valley, CA",Health Care,Nonprofit Organization,501 to 1000 employees,3.5,NaN,62.4,NaN,37.048345,-122.0168296,CA
335,Sr. Data Engineer - Contract-to-Hire (Java),69000,98000,127000,Pilot Flying J Travel Centers LLC,"Knoxville, TN",Retail,Company - Private,10000+ employees,3.0,91.6,95.5,62970,35.9606384,-83.9207392,TN
336,Data Scientist - Algorithms & Inference,110000,142500,175000,Nuna,"San Francisco, CA",Information Technology,Company - Private,51 to 200 employees,4.2,178.6,138.8,74121,37.7749295,-122.4194155,CA
337,Senior Data Scientist - R&D Oncology,102000,137000,172000,AstraZeneca,"New York, NY",Biotech & Pharmaceuticals,Company - Public,10000+ employees,3.9,128.0,133.5,88044,40.7127753,-74.0059728,NY
338,Data Engineer,74000,99000,124000,Pinnacol Assurance,"Denver, CO",Insurance,Nonprofit Organization,501 to 1000 employees,4.0,112.1,96.5,56151,39.7392358,-104.990251,CO
339,Food Scientist - Developer,40000,54000,68000,Palermo's Pizza,"Milwaukee, WI",Manufacturing,Company - Private,501 to 1000 employees,3.3,93.8,52.6,18095,43.0389025,-87.9064736,WI
340,Senior Data Scientist,108000,139500,171000,MathWorks,"Natick, MA",Information Technology,Company - Private,1001 to 5000 employees,4.4,NaN,135.9,NaN,42.2775281,-71.3468091,MA
341,Data Engineer,76000,109000,142000,MetroStar Systems,"Rockville, MD",Information Technology,Company - Private,201 to 500 employees,3.4,NaN,106.2,NaN,39.0839973,-77.1527578,MD
342,"Director II, Data Science - GRM Actuarial",202000,254000,306000,Liberty Mutual Insurance,"Chicago, IL",Insurance,Company - Private,10000+ employees,3.3,100.1,247.5,215730,41.8781136,-87.6297982,IL
343,"Scientist, Molecular/Cellular Biologist",49000,73000,97000,Audentes Therapeutics,"South San Francisco, CA",Biotech & Pharmaceuticals,Subsidiary or Business Segment,201 to 500 employees,2.9,NaN,71.1,NaN,37.654656,-122.4077498,CA
344,Staff Scientist-Downstream Process Development,49000,81000,113000,Advanced BioScience Laboratories,"Rockville, MD",Biotech & Pharmaceuticals,Company - Private,201 to 500 employees,2.7,NaN,78.9,NaN,39.0839973,-77.1527578,MD
345,Scientist - Analytical Services,65000,99500,134000,Reynolds American,"Winston-Salem, NC",Manufacturing,Company - Private,5001 to 10000 employees,3.1,91.2,96.9,64560,36.09985959999999,-80.244216,NC
346,Associate Data Analyst- Graduate Development Program,32000,45500,59000,National Interstate,"Richfield, OH",Insurance,Company - Private,501 to 1000 employees,3.3,NaN,44.3,NaN,41.2397772,-81.6381785,OH
347,Sr. Data Engineer,87000,122500,158000,Moser Consulting,"Indianapolis, IN",Business Services,Company - Private,51 to 200 employees,4.5,90.2,119.3,87934,39.768403,-86.158068,IN
348,Senior Insurance Data Scientist,107000,140000,173000,TransUnion,"Chicago, IL",Finance,Company - Public,5001 to 10000 employees,3.9,100.1,136.4,101697,41.8781136,-87.6297982,IL
349,Senior Data Science Systems Engineer,56000,77500,99000,MITRE,"Hampton, VA",Government,Nonprofit Organization,5001 to 10000 employees,3.2,NaN,75.5,NaN,37.0298687,-76.34522179999999,VA
350,Senior Scientist - Regulatory Submissions,80000,117500,155000,Reynolds American,"Winston-Salem, NC",Manufacturing,Company - Private,5001 to 10000 employees,3.1,91.2,114.5,82624,36.09985959999999,-80.244216,NC
351,Scientist - Biomarker and Flow Cytometry,43000,70500,98000,Crown Bioscience,"San Diego, CA",Biotech & Pharmaceuticals,Company - Private,501 to 1000 employees,2.4,136.2,68.7,18395,32.715738,-117.1610838,CA
352,Revenue Analytics Manager,45000,61500,78000,HOVER,"San Francisco, CA",Information Technology,Company - Private,51 to 200 employees,4.8,178.6,59.9,-6862,37.7749295,-122.4194155,CA
353,"Associate Scientist, LC/MS Biologics",44000,70000,96000,Q2 Solutions,"Ithaca, NY",Biotech & Pharmaceuticals,Company - Private,1001 to 5000 employees,2.9,101.7,68.2,31084,42.4439614,-76.5018807,NY
354,Sr. Scientist Method Development,50000,80000,110000,Q2 Solutions,"Marietta, GA",Biotech & Pharmaceuticals,Company - Private,1001 to 5000 employees,2.9,NaN,77.9,NaN,33.95260200000001,-84.5499327,GA
355,IT - Data Engineer II,61000,90000,119000,Arbella Insurance,"Quincy, MA",Insurance,Company - Private,1001 to 5000 employees,3.4,NaN,87.7,NaN,42.2528772,-71.0022705,MA
356,"Project Scientist - Auton Lab, Robotics Institute",56000,73500,91000,Software Engineering Institute,"Pittsburgh, PA",Education,College / University,501 to 1000 employees,2.6,93.1,71.6,37865,40.44062479999999,-79.9958864,PA
357,Data Scientist,68000,91000,114000,Zimmerman Advertising,"Fort Lauderdale, FL",Business Services,Subsidiary or Business Segment,501 to 1000 employees,3.8,NaN,88.7,NaN,26.1224386,-80.13731740000001,FL
358,Data Scientist,150000,155000,160000,BPA Services,"Washington, DC",Information Technology,Company - Private,Unknown,5.0,120.1,151.0,109029,38.9071923,-77.0368707,DC
359,"Enterprise Architect, Data",101000,129500,158000,MassMutual,"Boston, MA",Insurance,Company - Private,5001 to 10000 employees,3.6,132.6,126.2,78791,42.3600825,-71.0588801,MA
360,"Senior Manager, Epidemiologic Data Scientist",125000,167500,210000,Pfizer,"New York, NY",Biotech & Pharmaceuticals,Company - Public,10000+ employees,4.0,128.0,163.2,118528,40.7127753,-74.0059728,NY
361,Corporate Risk Data Analyst (SQL Based) - Milwaukee or,43000,60000,77000,Associated Banc-Corp,"Green Bay, WI",Finance,Company - Public,1001 to 5000 employees,3.8,91.4,58.5,25069,44.5133188,-88.0132958,WI
362,Lead Data Scientist,139000,180000,221000,Zest AI,"Burbank, CA",Finance,Company - Private,51 to 200 employees,3.9,NaN,175.4,NaN,34.1808392,-118.3089661,CA
363,"Marketing Data Analyst, May 2020 Undergrad",44000,65000,86000,Fareportal,"New York, NY",Travel & Tourism,Company - Private,1001 to 5000 employees,3.8,128.0,63.3,15991,40.7127753,-74.0059728,NY
364,Senior Data Engineer,78000,112500,147000,Genesys,"Durham, NC",Information Technology,Company - Private,5001 to 10000 employees,4.3,99.8,109.6,74304,35.9940329,-78.898619,NC
365,Senior Data Analyst,65000,87500,110000,Moda Operandi,"New York, NY",Retail,Company - Private,201 to 500 employees,1.9,128.0,85.2,38469,40.7127753,-74.0059728,NY
366,Data Modeler - Data Solutions Engineer,37000,51500,66000,Liberty Mutual Insurance,"Indianapolis, IN",Insurance,Company - Private,10000+ employees,3.3,90.2,50.2,17009,39.768403,-86.158068,IN
367,Associate Environmental Scientist - Wildlife Biologist,38000,51000,64000,QK,"Clovis, CA",Business Services,Company - Private,51 to 200 employees,4.7,NaN,49.7,NaN,36.8252277,-119.7029194,CA
368,"Associate, Data Science, Internal Audit",43000,62500,82000,Santander,"Boston, MA",Finance,Company - Private,10000+ employees,3.1,132.6,60.9,11767,42.3600825,-71.0588801,MA
369,Sr Data Engineer (Sr BI Developer),90000,100000,110000,Tivity Health,"Chandler, AZ",Health Care,Company - Public,501 to 1000 employees,3.4,NaN,97.4,NaN,33.3061605,-111.8412502,AZ
370,Data Engineer,61000,85000,109000,BRMi,"Chantilly, VA",Information Technology,Company - Private,51 to 200 employees,4.4,NaN,82.8,NaN,38.8942786,-77.43109919999999,VA
371,Senior LiDAR Data Scientist,93000,122000,151000,Luminar Technologies,"Orlando, FL",Information Technology,Company - Private,201 to 500 employees,3.9,101.4,118.9,83237,28.5383832,-81.3789269,FL
372,Salesforce Analytics Consultant,52000,66500,81000,"Emtec, Inc.","Chicago, IL",Information Technology,Company - Private,501 to 1000 employees,3.9,100.1,64.8,28206,41.8781136,-87.6297982,IL
373,"Technology-Minded, Data Professional Opportunities",40000,70500,101000,Veterans United Home Loans,"Columbia, MO",Finance,Company - Private,1001 to 5000 employees,4.7,89.8,68.7,36151,38.9517053,-92.3340724,MO
374,Senior Data Engineer,97000,138500,180000,Praetorian,"Austin, TX",Business Services,Company - Private,51 to 200 employees,4.7,106.6,134.9,97670,30.267153,-97.7430608,TX
375,Managing Data Scientist/ML Engineer,81000,107500,134000,PA Consulting,"Boston, MA",Business Services,Company - Private,1001 to 5000 employees,3.4,132.6,104.7,56723,42.3600825,-71.0588801,MA
376,"Scientist, Pharmacometrics",84000,120500,157000,Agios Pharmaceuticals,"Cambridge, MA",Biotech & Pharmaceuticals,Company - Public,501 to 1000 employees,3.8,NaN,117.4,NaN,42.3736158,-71.10973349999999,MA
377,Staff Scientist- Upstream PD,49000,81000,113000,Advanced BioScience Laboratories,"Rockville, MD",Biotech & Pharmaceuticals,Company - Private,201 to 500 employees,2.7,NaN,78.9,NaN,39.0839973,-77.1527578,MD
378,Scientist Manufacturing Pharma - Kentucky BioProcessing,68000,103500,139000,Reynolds American,"Owensboro, KY",Manufacturing,Company - Private,5001 to 10000 employees,3.1,86.6,100.8,70323,37.7719074,-87.1111676,KY
379,Sr. Data Engineer,75000,107500,140000,Echo Global Logistics,"Chicago, IL",Transportation & Logistics,Company - Public,1001 to 5000 employees,3.4,100.1,104.7,69160,41.8781136,-87.6297982,IL
380,Lead Big Data Engineer,121000,162000,203000,Glassdoor,"San Francisco, CA",Information Technology,Company - Private,1001 to 5000 employees,4.0,178.6,157.8,93623,37.7749295,-122.4194155,CA
381,Product Engineer  Spatial Data Science and Statistical Analysis,52000,68500,85000,Esri,"Redlands, CA",Information Technology,Company - Private,1001 to 5000 employees,3.5,NaN,66.7,NaN,34.0563884,-117.2058765,CA
382,Sr Software Engineer (Data Scientist),81000,110500,140000,Assurant,"Westlake, OH",Insurance,Company - Public,10000+ employees,3.4,NaN,107.7,NaN,41.4553232,-81.9179173,OH
383,College Hire - Data Scientist - Open to December 2019 Graduates,63000,81000,99000,Caterpillar,"Peoria, IL",Manufacturing,Company - Public,10000+ employees,3.7,86.7,78.9,47806,40.6936488,-89.5889864,IL
384,Senior Data Scientist,110000,130000,150000,Equity Residential,"Chicago, IL",Real Estate,Company - Public,1001 to 5000 employees,4.3,100.1,126.7,91741,41.8781136,-87.6297982,IL
385,Sr. Data Engineer (ETL Developer),83000,115500,148000,F&G,"Des Moines, IA",Insurance,Subsidiary or Business Segment,201 to 500 employees,3.7,91.7,112.5,80380,41.5868353,-93.6249593,IA
386,Senior Data Scientist Artificial Intelligence,60000,80500,101000,PNNL,"Richland, WA","Oil, Gas, Energy & Utilities",Government,1001 to 5000 employees,3.8,NaN,78.4,NaN,46.28042000000001,-119.2751996,WA
387,Analytics - Business Assurance Data Analyst,31000,43000,55000,GreatAmerica Financial Services,"Cedar Rapids, IA",Finance,Company - Private,501 to 1000 employees,4.6,88.1,41.9,9294,41.9778795,-91.6656232,IA
388,"Associate Director/Director, Safety Scientist",102000,140000,178000,Acceleron Pharma,"Cambridge, MA",Biotech & Pharmaceuticals,Company - Public,201 to 500 employees,4.4,NaN,136.4,NaN,42.3736158,-71.10973349999999,MA
389,Data Analyst Senior,48000,66500,85000,AmeriHealth Caritas,"Philadelphia, PA",Insurance,Company - Private,5001 to 10000 employees,3.0,103.4,64.8,26944,39.9525839,-75.1652215,PA
390,Lead Data Engineer (Python),66000,94500,123000,Strategic Employment Partners,"San Francisco, CA",Business Services,Company - Private,51 to 200 employees,4.7,178.6,92.1,26188,37.7749295,-122.4194155,CA
391,Senior Data Scientist 4 Artificial Intelligence,92000,119000,146000,PNNL,"Seattle, WA","Oil, Gas, Energy & Utilities",Government,1001 to 5000 employees,3.8,124.6,115.9,71280,47.6062095,-122.3320708,WA
392,"Director II, Data Science - GRS Predictive Analytics",150000,194500,239000,Liberty Mutual Insurance,"Chicago, IL",Insurance,Company - Private,10000+ employees,3.3,100.1,189.5,156199,41.8781136,-87.6297982,IL
393,RESEARCH COMPUTER SCIENTIST - RESEARCH ENGINEER - SR. COMPUTER SCIENTIST - SOFTWARE DEVELOPMENT,52000,71500,91000,Southwest Research Institute,"San Antonio, TX",Business Services,Nonprofit Organization,1001 to 5000 employees,3.9,92.7,69.7,36068,29.4251905,-98.4945922,TX
394,Geospatial Software Developer and Data Scientist,82000,105500,129000,Applied Research Laboratories,"Austin, TX",Education,College / University,501 to 1000 employees,3.7,106.6,102.8,64722,30.267153,-97.7430608,TX
395,Senior Scientist - Toxicologist - Product Integrity (Stewardship),47000,74000,101000,Reynolds American,"Winston-Salem, NC",Manufacturing,Company - Private,5001 to 10000 employees,3.1,91.2,72.1,39105,36.09985959999999,-80.244216,NC
396,Systems Engineer II - Data Analyst,49000,62500,76000,Raytheon,"Huntsville, AL",Aerospace & Defense,Company - Public,10000+ employees,3.7,91.3,60.9,27571,34.7303688,-86.5861037,AL
397,Senior Research Analytical Scientist-Non-Targeted Analysis,43000,65500,88000,RTI International,"Durham, NC",Business Services,Nonprofit Organization,1001 to 5000 employees,4.3,99.8,63.8,27295,35.9940329,-78.898619,NC
398,Director Data Science,124000,161500,199000,TRANZACT,"Fort Lee, NJ",Business Services,Company - Private,1001 to 5000 employees,3.6,NaN,157.3,NaN,40.8509333,-73.9701381,NJ
399,Sr Data Analyst - IT,52000,72500,93000,United BioSource,"Blue Bell, PA",Biotech & Pharmaceuticals,Other Organization,1001 to 5000 employees,2.1,NaN,70.6,NaN,40.1523309,-75.26628900000001,PA
400,Senior Data Engineer,97000,139000,181000,Figure Eight,"San Francisco, CA",Information Technology,Company - Public,51 to 200 employees,3.9,178.6,135.4,70632,37.7749295,-122.4194155,CA
401,Senior Data Engineer,100000,136500,173000,Tapjoy,"San Francisco, CA",Information Technology,Company - Private,201 to 500 employees,3.9,178.6,133.0,68168,37.7749295,-122.4194155,CA
402,Associate Machine Learning Engineer / Data Scientist May 2020 Undergrad,53000,74500,96000,Fareportal,"New York, NY",Travel & Tourism,Company - Private,1001 to 5000 employees,3.8,128.0,72.6,25536,40.7127753,-74.0059728,NY
403,Senior Scientist - Biostatistician,65000,80500,96000,Reynolds American,"Winston-Salem, NC",Manufacturing,Company - Private,5001 to 10000 employees,3.1,91.2,78.4,45571,36.09985959999999,-80.244216,NC
404,Data Scientist,56000,75500,95000,Sartorius,"Albuquerque, NM",Biotech & Pharmaceuticals,Company - Public,5001 to 10000 employees,3.5,92.9,73.6,39994,35.0843859,-106.650422,NM
405,Data Scientist,111000,143500,176000,1904labs,"Saint Louis, MO",Information Technology,Company - Private,51 to 200 employees,4.7,NaN,139.8,NaN,38.6270025,-90.19940419999999,MO
406,Data Scientist,75000,101000,127000,Royce Geospatial,"Springfield, VA",Aerospace & Defense,Company - Private,51 to 200 employees,5.0,NaN,98.4,NaN,38.7892801,-77.18720359999999,VA
407,Data Engineer,65000,92000,119000,MassMutual,"Springfield, MA",Insurance,Company - Private,5001 to 10000 employees,3.6,106.5,89.6,51212,42.1014831,-72.589811,MA
408,Computational Chemist/Data Scientist,56000,76500,97000,PNNL,"Richland, WA","Oil, Gas, Energy & Utilities",Government,1001 to 5000 employees,3.8,NaN,74.5,NaN,46.28042000000001,-119.2751996,WA
409,Principal Data Scientist (Computational Chemistry),108000,140500,173000,Recursion Pharmaceuticals,"Salt Lake City, UT",Biotech & Pharmaceuticals,Company - Private,51 to 200 employees,4.7,105.9,136.9,99991,40.7607793,-111.8910474,UT
410,Data Scientist,94000,116500,139000,Citi,"Jersey City, NJ",Finance,Company - Public,10000+ employees,3.6,NaN,113.5,NaN,40.7177545,-74.0431435,NJ
411,Principal Machine Learning Scientist,176000,232500,289000,Sage Intacct,"San Francisco, CA",Information Technology,Subsidiary or Business Segment,501 to 1000 employees,4.7,178.6,226.5,164137,37.7749295,-122.4194155,CA
412,Data Scientist,92000,120500,149000,Scale AI,"San Francisco, CA",Information Technology,Company - Private,51 to 200 employees,3.5,178.6,117.4,52156,37.7749295,-122.4194155,CA
413,Product Engineer  Data Science,63000,82000,101000,Esri,"Arlington, VA",Information Technology,Company - Private,1001 to 5000 employees,3.5,NaN,79.9,NaN,38.8799697,-77.1067698,VA
414,"Principal Scientist, Chemistry & Immunology",54000,84500,115000,Rochester Regional Health,"Rochester, NY",Health Care,Hospital,10000+ employees,3.3,96.6,82.3,47508,43.15657789999999,-77.6088465,NY
415,Data Scientist,118000,153000,188000,Change Healthcare,"Emeryville, CA",Information Technology,Company - Public,10000+ employees,2.7,NaN,149.1,NaN,37.8395028,-122.2892278,CA
416,Data Scientist,108000,127000,146000,MZ,"Palo Alto, CA",Information Technology,Company - Private,501 to 1000 employees,3.4,NaN,123.7,NaN,37.4418834,-122.1430195,CA
417,Data Scientist,65000,85500,106000,HG Insights,"Santa Barbara, CA",Information Technology,Company - Private,51 to 200 employees,4.7,NaN,83.3,NaN,34.4208305,-119.6981901,CA
418,Data Scientist,55000,76500,98000,"1-800-FLOWERS.COM, Inc.","Carle Place, NY",Business Services,Company - Public,1001 to 5000 employees,2.8,NaN,74.5,NaN,40.7526008,-73.6104058,NY
419,Data Scientist,94000,128000,162000,CBS Interactive,"New York, NY",Media,Subsidiary or Business Segment,1001 to 5000 employees,3.5,128.0,124.7,79012,40.7127753,-74.0059728,NY
420,Data Engineer,63000,91500,120000,"Numeric, LLC","King of Prussia, PA",Business Services,Company - Private,1 to 50 employees,3.2,NaN,89.1,NaN,40.1012856,-75.3835525,PA
421,"Scientist/Senior Scientist, Autoimmune",90000,134500,179000,Rubius Therapeutics,"Cambridge, MA",Biotech & Pharmaceuticals,Company - Public,201 to 500 employees,4.4,NaN,131.0,NaN,42.3736158,-71.10973349999999,MA
422,Data Scientist,127000,164500,202000,Samba TV,"San Francisco, CA",Business Services,Company - Private,201 to 500 employees,3.3,178.6,160.3,96189,37.7749295,-122.4194155,CA
423,Software Engineer - Data Visualization,60000,93500,127000,ClearEdge,"Annapolis Junction, MD",Information Technology,Company - Private,51 to 200 employees,4.0,NaN,91.1,NaN,39.1202934,-76.77693239999999,MD
424,Market Data Analyst,31000,44000,57000,SV Microwave,"West Palm Beach, FL",Telecommunications,Company - Public,201 to 500 employees,3.4,NaN,42.9,NaN,26.7153424,-80.0533746,FL
425,Staff Data Engineer,105000,149500,194000,Sumo Logic,"Austin, TX",Information Technology,Company - Private,501 to 1000 employees,3.8,106.6,145.7,108755,30.267153,-97.7430608,TX
426,Associate Data Engineer,45000,65500,86000,EAB,"Washington, DC",Business Services,Company - Private,1001 to 5000 employees,3.5,120.1,63.8,19527,38.9071923,-77.0368707,DC
427,Data Engineer,75000,109000,143000,SpringML,"Herndon, VA",Information Technology,Company - Private,1 to 50 employees,4.4,NaN,106.2,NaN,38.9695545,-77.3860976,VA
428,Staff Data Engineer,126000,177000,228000,Samsung Research America,"Mountain View, CA",Information Technology,Subsidiary or Business Segment,1001 to 5000 employees,3.7,NaN,172.4,NaN,37.3860517,-122.0838511,CA
429,Data Scientist,80000,107000,134000,Systems & Technology Research,"Arlington, VA",Aerospace & Defense,Company - Private,201 to 500 employees,4.7,NaN,104.2,NaN,38.8799697,-77.1067698,VA
430,Data Scientist,120000,154500,189000,Netskope,"Santa Clara, CA",Information Technology,Company - Private,501 to 1000 employees,4.1,NaN,150.5,NaN,37.3541079,-121.9552356,CA
431,Data Scientist,85000,113500,142000,Lorven Technologies Inc,"Santa Clara, CA",Accounting & Legal,Company - Private,1 to 50 employees,4.0,NaN,110.6,NaN,37.3541079,-121.9552356,CA
432,Senior Data Scientist,95000,124500,154000,Brighthouse Financial,"Charlotte, NC",Insurance,Company - Public,1001 to 5000 employees,3.5,97.9,121.3,87040,35.2270869,-80.8431267,NC
433,Data Scientist,111000,143500,176000,CareDx,"Brisbane, CA",Biotech & Pharmaceuticals,Company - Private,1 to 50 employees,2.5,NaN,139.8,NaN,37.6807661,-122.3999715,CA
434,Data Scientist,87000,113500,140000,Serigor Inc.,"San Francisco, CA",Information Technology,Company - Private,1 to 50 employees,3.9,178.6,110.6,45177,37.7749295,-122.4194155,CA
435,Data Scientist,76000,101500,127000,Leidos,"Springfield, VA",Aerospace & Defense,Company - Public,10000+ employees,3.4,NaN,98.9,NaN,38.7892801,-77.18720359999999,VA
436,"Data Analyst, Performance Partnership",54000,73000,92000,Beckman Coulter Diagnostics,"New York, NY",Manufacturing,Subsidiary or Business Segment,10000+ employees,3.6,128.0,71.1,23997,40.7127753,-74.0059728,NY
437,Data Scientist,61000,80500,100000,IHS Markit,"New York, NY",Business Services,Company - Public,10000+ employees,3.5,128.0,78.4,31489,40.7127753,-74.0059728,NY
438,Staff BI and Data Engineer,80000,114000,148000,Affinity Solutions,"San Jose, CA",Business Services,Company - Private,51 to 200 employees,2.9,173.5,111.1,47642,37.33874,-121.8852525,CA
439,Data Scientist,108000,139500,171000,e-IT Professionals Corp.,"Foster City, CA",Consumer Services,Company - Private,51 to 200 employees,3.5,NaN,135.9,NaN,37.5585465,-122.2710788,CA
440,Data Scientist,112000,145500,179000,TechProjects,"New York, NY",Information Technology,Company - Private,1 to 50 employees,4.8,128.0,141.8,96563,40.7127753,-74.0059728,NY
441,Data Scientist,63000,87000,111000,Biz2Credit Inc,"New York, NY",Finance,Company - Private,201 to 500 employees,4.0,128.0,84.8,38058,40.7127753,-74.0059728,NY
442,Data Scientist,75000,100500,126000,PeoplesBank,"Holyoke, MA",Finance,Company - Private,201 to 500 employees,4.2,NaN,97.9,NaN,42.2042586,-72.6162009,MA
443,Data Scientist Manager,110000,147000,184000,Capgemini,"New York, NY",Information Technology,Company - Public,10000+ employees,3.8,128.0,143.2,98000,40.7127753,-74.0059728,NY
444,Data Engineer,76000,110500,145000,GNY Insurance Companies,"New York, NY",Insurance,Company - Private,201 to 500 employees,3.7,128.0,107.7,61563,40.7127753,-74.0059728,NY
445,Marketing Data Analyst,36000,49000,62000,Citadel Federal Credit Union,"Exton, PA",Finance,Nonprofit Organization,501 to 1000 employees,3.9,NaN,47.7,NaN,40.0325817,-75.6274583,PA
446,Data Scientist,70000,94000,118000,"Conch Technologies, Inc","Waltham, MA",Business Services,Company - Private,51 to 200 employees,4.6,NaN,91.6,NaN,42.3764852,-71.2356113,MA
447,Senior Data Scientist,94000,123500,153000,Medidata Solutions,"New York, NY",Information Technology,Company - Public,1001 to 5000 employees,4.3,128.0,120.3,74495,40.7127753,-74.0059728,NY
448,"Principal Scientist, Hematology",54000,84500,115000,Rochester Regional Health,"Rochester, NY",Health Care,Hospital,10000+ employees,3.3,96.6,82.3,47508,43.15657789999999,-77.6088465,NY
449,Data Analyst,50000,71000,92000,CALIBRE Systems,"Alexandria, VA",Information Technology,Company - Private,501 to 1000 employees,3.7,NaN,69.2,NaN,38.8048355,-77.0469214,VA
450,Software Data Engineer - College,49000,73000,97000,HP Inc.,"Corvallis, OR",Information Technology,Company - Public,10000+ employees,4.0,110.6,71.1,30655,44.5645659,-123.2620435,OR
451,"Director - Data, Privacy and AI Governance",67000,101000,135000,MassMutual,"Boston, MA",Insurance,Company - Private,5001 to 10000 employees,3.6,132.6,98.4,50257,42.3600825,-71.0588801,MA
452,Staff Machine Learning Engineer,138000,181000,224000,Tapjoy,"San Francisco, CA",Information Technology,Company - Private,201 to 500 employees,3.9,178.6,176.3,112611,37.7749295,-122.4194155,CA
453,Data Scientist,80000,109500,139000,Northrop Grumman,"San Diego, CA",Aerospace & Defense,Company - Public,10000+ employees,3.7,136.2,106.7,57399,32.715738,-117.1610838,CA
454,Lead Data Scientist,158000,184500,211000,Visa Inc.,"Bellevue, WA",Information Technology,Company - Public,10000+ employees,3.7,NaN,179.8,NaN,47.6101497,-122.2015159,WA
455,Senior Data Scientist - Algorithms,150000,165000,180000,Quartet Health,"New York, NY",Information Technology,Company - Private,201 to 500 employees,3.9,128.0,160.8,116065,40.7127753,-74.0059728,NY
456,Information Security Data Analyst,42000,61000,80000,Motorola Solutions,"Chicago, IL",Information Technology,Company - Public,10000+ employees,3.7,100.1,59.4,22664,41.8781136,-87.6297982,IL
457,Lead Data Engineer,190000,205000,220000,Credit Sesame,"Mountain View, CA",Information Technology,Company - Private,51 to 200 employees,4.1,NaN,199.7,NaN,37.3860517,-122.0838511,CA
458,Data Analyst,42000,59500,77000,Success Academy Charter Schools,"New York, NY",Education,School / School District,1001 to 5000 employees,3.1,128.0,58.0,10551,40.7127753,-74.0059728,NY
459,Scientist Manufacturing - Kentucky BioProcessing,68000,103500,139000,Reynolds American,"Owensboro, KY",Manufacturing,Company - Private,5001 to 10000 employees,3.1,86.6,100.8,70323,37.7719074,-87.1111676,KY
460,Consultant - Analytics Consulting,54000,62500,71000,Infosys,"Hartford, CT",Information Technology,Company - Public,10000+ employees,3.0,104.8,60.9,22405,41.7658043,-72.6733723,CT
461,Data Analytics Project Manager,34000,63000,92000,MassMutual,"Springfield, MA",Insurance,Company - Private,5001 to 10000 employees,3.6,106.5,61.4,22268,42.1014831,-72.589811,MA
462,Data Analyst,47000,66000,85000,AXION Healthcare Solutions,"New York, NY",Health Care,Company - Private,1 to 50 employees,3.6,128.0,64.3,17017,40.7127753,-74.0059728,NY
463,Data Engineer,65000,94500,124000,Alignment Healthcare,"Orange, CA",Health Care,Company - Private,501 to 1000 employees,3.5,NaN,92.1,NaN,33.7879139,-117.8531007,CA
464,Data Scientist,56000,75500,95000,ExecOnline,"New York, NY",Education,Company - Private,51 to 200 employees,4.2,128.0,73.6,26563,40.7127753,-74.0059728,NY
465,Machine Learning Engineer,62000,87000,112000,Mteq,"Fort Belvoir, VA",Aerospace & Defense,Company - Public,501 to 1000 employees,4.0,NaN,84.8,NaN,38.71887160000001,-77.15426839999999,VA
466,Senior Data Scientist Oncology,107000,140000,173000,AstraZeneca,"Gaithersburg, MD",Biotech & Pharmaceuticals,Company - Public,10000+ employees,3.9,NaN,136.4,NaN,39.1439689,-77.2016062,MD
467,Data Scientist,64000,86000,108000,Brillient,"Silver Spring, MD",Information Technology,Company - Private,201 to 500 employees,3.7,NaN,83.8,NaN,38.99066570000001,-77.026088,MD
468,Senior Data Scientist,89000,116500,144000,Entefy,"Palo Alto, CA",Information Technology,Company - Private,1 to 50 employees,4.4,NaN,113.5,NaN,37.4418834,-122.1430195,CA
469,Senior Scientist (Neuroscience),109000,154500,200000,Sunovion,"Marlborough, MA",Biotech & Pharmaceuticals,Company - Private,1001 to 5000 employees,3.5,NaN,150.5,NaN,42.3459271,-71.5522874,MA
470,Machine Learning Engineer - Regulatory,61000,87000,113000,Cboe Global Markets,"Lenexa, KS",Finance,Company - Public,501 to 1000 employees,3.7,NaN,84.8,NaN,38.9536174,-94.73357089999999,KS
471,Marketing Data Analyst,35000,48500,62000,San Manuel Casino,"Highland, CA","Arts, Entertainment & Recreation",Company - Private,1001 to 5000 employees,3.6,NaN,47.3,NaN,34.1211873,-117.2015791,CA
472,Data Engineer,55000,80000,105000,Trace3,"Houston, TX",Information Technology,Company - Private,501 to 1000 employees,3.4,95.8,77.9,43298,29.7604267,-95.3698028,TX
473,R&D Specialist/ Food Scientist,39000,52500,66000,Teasdale Latin Foods,"Hoopeston, IL",Manufacturing,Company - Private,501 to 1000 employees,2.4,NaN,51.1,NaN,40.4672587,-87.6683573,IL
474,Principal Data Scientist,135000,173000,211000,Northrop Grumman,"San Jose, CA",Aerospace & Defense,Company - Public,10000+ employees,3.7,173.5,168.6,106660,37.33874,-121.8852525,CA
475,Data Engineer,57000,68500,80000,Saama Technologies Inc,"Phoenix, AZ",Biotech & Pharmaceuticals,Company - Private,501 to 1000 employees,3.5,104.3,66.7,28549,33.4483771,-112.0740373,AZ
476,Data Scientist - Alpha Insights,129000,172000,215000,Two Sigma,"New York, NY",Finance,Company - Private,1001 to 5000 employees,4.4,128.0,167.6,123044,40.7127753,-74.0059728,NY
477,"Data Scientist, Office of Data Science",86000,114500,143000,Liberty Mutual Insurance,"Boston, MA",Insurance,Company - Private,10000+ employees,3.3,132.6,111.6,63806,42.3600825,-71.0588801,MA
478,"Associate Principal Scientist, Pharmacogenomics",63000,95000,127000,AstraZeneca,"Gaithersburg, MD",Biotech & Pharmaceuticals,Company - Public,10000+ employees,3.9,NaN,92.6,NaN,39.1439689,-77.2016062,MD
479,Data Scientist - Systems Engineering,50000,69500,89000,MITRE,"Bedford, MA",Government,Nonprofit Organization,5001 to 10000 employees,3.2,NaN,67.7,NaN,42.4906231,-71.2760089,MA
480,Data Engineer,43000,64500,86000,Guidepoint,"New York, NY",Business Services,Company - Private,501 to 1000 employees,3.2,128.0,62.8,15477,40.7127753,-74.0059728,NY
481,"Scientist, Bacteriology",74000,111500,149000,Cerus Corporation,"Concord, CA",Biotech & Pharmaceuticals,Company - Public,201 to 500 employees,2.1,NaN,108.6,NaN,37.9779776,-122.0310733,CA
482,Data Scientist,71000,97500,124000,Strategic Financial Solutions,"New York, NY",Consumer Services,Company - Private,501 to 1000 employees,4.0,128.0,95.0,48528,40.7127753,-74.0059728,NY
483,"Associate Director, Platform and DevOps- Data Engineering and Aritifical Intelligence",113000,154500,196000,Takeda Pharmaceuticals,"Cambridge, MA",Biotech & Pharmaceuticals,Company - Public,10000+ employees,3.7,NaN,150.5,NaN,42.3736158,-71.10973349999999,MA
484,Senior Research Scientist-Machine Learning,81000,124000,167000,Software Engineering Institute,"Pittsburgh, PA",Education,College / University,501 to 1000 employees,2.6,93.1,120.8,88364,40.44062479999999,-79.9958864,PA
485,Data Scientist,69000,95000,121000,"Remedy BPCI Partners, LLC.","New York, NY",Health Care,Company - Private,201 to 500 employees,3.4,128.0,92.6,46064,40.7127753,-74.0059728,NY
486,Senior Data Scientist,97000,128500,160000,Maven Wave Partners,"Chicago, IL",Business Services,Company - Private,201 to 500 employees,4.4,100.1,125.2,90201,41.8781136,-87.6297982,IL
487,Principal Data Scientist,150000,194000,238000,The Climate Corporation,"San Francisco, CA",Information Technology,Subsidiary or Business Segment,501 to 1000 employees,3.2,178.6,189.0,125647,37.7749295,-122.4194155,CA
488,Data Scientist,77000,104500,132000,Crossix Solutions,"New York, NY",Business Services,Company - Public,201 to 500 employees,3.5,128.0,101.8,55507,40.7127753,-74.0059728,NY
489,Data Engineer - Consultant (Charlotte Based),59000,85500,112000,Clarity Insights,"Charlotte, NC",Information Technology,Company - Private,201 to 500 employees,4.2,97.9,83.3,48037,35.2270869,-80.8431267,NC
490,"Data Analyst 1, full-time contract worker for up to 12 months",35000,50000,65000,The Church of Jesus Christ of Latter-day Saints,"Salt Lake City, UT",Non-Profit,Nonprofit Organization,10000+ employees,4.2,105.9,48.7,9462,40.7607793,-111.8910474,UT
491,Data Engineer,79000,113000,147000,NCSOFT,"Aliso Viejo, CA",Media,Company - Public,1001 to 5000 employees,3.1,NaN,110.1,NaN,33.5684605,-117.7262981,CA
492,"Scientist, Immuno-Oncology",62000,90500,119000,GSK,"Cambridge, MA",Biotech & Pharmaceuticals,Company - Public,10000+ employees,3.9,NaN,88.2,NaN,42.3736158,-71.10973349999999,MA
493,Senior Data Scientist,119000,153000,187000,Factual,"Los Angeles, CA",Information Technology,Company - Private,51 to 200 employees,4.3,140.6,149.1,99234,34.0522342,-118.2436849,CA
494,Products Data Analyst II,90000,123500,157000,TriNet,"Dublin, CA",Business Services,Company - Public,1001 to 5000 employees,3.3,NaN,120.3,NaN,37.7159396,-121.9101221,CA
495,Lead Data Analyst,32000,47000,62000,Signpost,"New York, NY",Information Technology,Company - Private,201 to 500 employees,3.9,128.0,45.8,-1971,40.7127753,-74.0059728,NY
496,Analytics Manager - Data Mart,42000,64000,86000,Central California Alliance for Health,"Scotts Valley, CA",Health Care,Nonprofit Organization,501 to 1000 employees,3.5,NaN,62.4,NaN,37.048345,-122.0168296,CA
497,Data Science Engineer - Mobile,116000,162000,208000,Adobe,"San Jose, CA",Information Technology,Company - Public,10000+ employees,4.0,173.5,157.8,95574,37.33874,-121.8852525,CA
498,Senior Data Scientist - R&D Oncology,102000,137000,172000,AstraZeneca,"New York, NY",Biotech & Pharmaceuticals,Company - Public,10000+ employees,3.9,128.0,133.5,88044,40.7127753,-74.0059728,NY
499,Sr. Data Engineer - Contract-to-Hire (Java),69000,98000,127000,Pilot Flying J Travel Centers LLC,"Knoxville, TN",Retail,Company - Private,10000+ employees,3.0,91.6,95.5,62970,35.9606384,-83.9207392,TN
500,Data Scientist,86000,115000,144000,Swiss Re,"Armonk, NY",Insurance,Company - Public,10000+ employees,3.7,NaN,112.0,NaN,41.1264849,-73.71401949999999,NY
501,Senior Data Scientist,102000,133500,165000,Sartorius,"Arvada, CO",Biotech & Pharmaceuticals,Company - Public,5001 to 10000 employees,3.5,NaN,130.1,NaN,39.8027644,-105.0874842,CO
502,Data Engineer,74000,99000,124000,Pinnacol Assurance,"Denver, CO",Insurance,Nonprofit Organization,501 to 1000 employees,4.0,112.1,96.5,56151,39.7392358,-104.990251,CO
503,Food Scientist - Developer,40000,54000,68000,Palermo's Pizza,"Milwaukee, WI",Manufacturing,Company - Private,501 to 1000 employees,3.3,93.8,52.6,18095,43.0389025,-87.9064736,WI
504,Senior Data Engineer,76000,109000,142000,Equian LLC,"Franklin, TN",Health Care,Company - Private,1001 to 5000 employees,3.2,NaN,106.2,NaN,35.9250637,-86.8688899,TN
505,Data Engineer,76000,109000,142000,MetroStar Systems,"Rockville, MD",Information Technology,Company - Private,201 to 500 employees,3.4,NaN,106.2,NaN,39.0839973,-77.1527578,MD
506,Senior Data Scientist,108000,139500,171000,MathWorks,"Natick, MA",Information Technology,Company - Private,1001 to 5000 employees,4.4,NaN,135.9,NaN,42.2775281,-71.3468091,MA
507,"Director II, Data Science - GRM Actuarial",202000,254000,306000,Liberty Mutual Insurance,"Chicago, IL",Insurance,Company - Private,10000+ employees,3.3,100.1,247.5,215730,41.8781136,-87.6297982,IL
508,Machine Learning Engineer,91000,125000,159000,Information Builders,"New York, NY",Information Technology,Company - Private,1001 to 5000 employees,3.2,128.0,121.8,76035,40.7127753,-74.0059728,NY
509,"Sr Expert Data Science, Advanced Visual Analytics (Associate level)",80000,106500,133000,Novartis,"Cambridge, MA",Biotech & Pharmaceuticals,Company - Public,10000+ employees,3.8,NaN,103.8,NaN,42.3736158,-71.10973349999999,MA
510,"Scientist, Molecular/Cellular Biologist",49000,73000,97000,Audentes Therapeutics,"South San Francisco, CA",Biotech & Pharmaceuticals,Subsidiary or Business Segment,201 to 500 employees,2.9,NaN,71.1,NaN,37.654656,-122.4077498,CA
511,Staff Scientist-Downstream Process Development,49000,81000,113000,Advanced BioScience Laboratories,"Rockville, MD",Biotech & Pharmaceuticals,Company - Private,201 to 500 employees,2.7,NaN,78.9,NaN,39.0839973,-77.1527578,MD
512,Scientist - Analytical Services,65000,99500,134000,Reynolds American,"Winston-Salem, NC",Manufacturing,Company - Private,5001 to 10000 employees,3.1,91.2,96.9,64560,36.09985959999999,-80.244216,NC
513,Associate Data Analyst- Graduate Development Program,32000,45500,59000,National Interstate,"Richfield, OH",Insurance,Company - Private,501 to 1000 employees,3.3,NaN,44.3,NaN,41.2397772,-81.6381785,OH
514,IT Associate Data Analyst,39000,54000,69000,The Hanover Insurance Group,"Worcester, MA",Insurance,Company - Public,5001 to 10000 employees,3.7,113.2,52.6,10672,42.2625932,-71.8022934,MA
515,Sr. Data Engineer,87000,122500,158000,Moser Consulting,"Indianapolis, IN",Business Services,Company - Private,51 to 200 employees,4.5,90.2,119.3,87934,39.768403,-86.158068,IN
516,Clinical Data Analyst,27000,37500,48000,Greenway Health,"Tampa, FL",Information Technology,Subsidiary or Business Segment,1001 to 5000 employees,3.0,101.4,36.5,-1338,27.950575,-82.4571776,FL
517,Business Data Analyst,36000,53500,71000,Fareportal,"New York, NY",Travel & Tourism,Company - Private,1001 to 5000 employees,3.8,128.0,52.1,4495,40.7127753,-74.0059728,NY
518,Senior Insurance Data Scientist,107000,140000,173000,TransUnion,"Chicago, IL",Finance,Company - Public,5001 to 10000 employees,3.9,100.1,136.4,101697,41.8781136,-87.6297982,IL
519,Senior Data Science Systems Engineer,56000,77500,99000,MITRE,"Hampton, VA",Government,Nonprofit Organization,5001 to 10000 employees,3.2,NaN,75.5,NaN,37.0298687,-76.34522179999999,VA
520,Senior Scientist - Regulatory Submissions,80000,117500,155000,Reynolds American,"Winston-Salem, NC",Manufacturing,Company - Private,5001 to 10000 employees,3.1,91.2,114.5,82624,36.09985959999999,-80.244216,NC
521,Scientist - Biomarker and Flow Cytometry,43000,70500,98000,Crown Bioscience,"San Diego, CA",Biotech & Pharmaceuticals,Company - Private,501 to 1000 employees,2.4,136.2,68.7,18395,32.715738,-117.1610838,CA
522,"Associate Scientist, LC/MS Biologics",44000,70000,96000,Q2 Solutions,"Ithaca, NY",Biotech & Pharmaceuticals,Company - Private,1001 to 5000 employees,2.9,101.7,68.2,31084,42.4439614,-76.5018807,NY
523,Revenue Analytics Manager,45000,61500,78000,HOVER,"San Francisco, CA",Information Technology,Company - Private,51 to 200 employees,4.8,178.6,59.9,-6862,37.7749295,-122.4194155,CA
524,Sr. Scientist Method Development,50000,80000,110000,Q2 Solutions,"Marietta, GA",Biotech & Pharmaceuticals,Company - Private,1001 to 5000 employees,2.9,NaN,77.9,NaN,33.95260200000001,-84.5499327,GA
525,Data Scientist,60000,79500,99000,Oversight Systems,"Atlanta, GA",Information Technology,Company - Private,51 to 200 employees,4.7,100.3,77.5,41165,33.7489954,-84.3879824,GA
526,Data Scientist - Sales,130000,168000,206000,Confluent,"Mountain View, CA",Information Technology,Company - Private,501 to 1000 employees,4.7,NaN,163.7,NaN,37.3860517,-122.0838511,CA
527,IT - Data Engineer II,61000,90000,119000,Arbella Insurance,"Quincy, MA",Insurance,Company - Private,1001 to 5000 employees,3.4,NaN,87.7,NaN,42.2528772,-71.0022705,MA
528,Senior Data Analyst,99000,138500,178000,Life360,"San Francisco, CA",Information Technology,Company - Public,51 to 200 employees,3.9,178.6,134.9,70118,37.7749295,-122.4194155,CA
529,"Principal, Data Science - Advanced Analytics",86000,111500,137000,IQVIA,"Plymouth Meeting, PA",Biotech & Pharmaceuticals,Company - Public,10000+ employees,3.6,NaN,108.6,NaN,40.1023319,-75.2743467,PA
530,Data Science Project Manager,37000,68500,100000,MassMutual,"Boston, MA",Insurance,Company - Private,5001 to 10000 employees,3.6,132.6,66.7,17720,42.3600825,-71.0588801,MA
531,"Sr Scientist, Immuno-Oncology - Oncology",58000,84500,111000,GSK,"Cambridge, MA",Biotech & Pharmaceuticals,Company - Public,10000+ employees,3.9,NaN,82.3,NaN,42.3736158,-71.10973349999999,MA
